[{"totalSockets": 2, "vacancyEV": 1, "Others": "0", "image": "http://www.hkev.com.hk/chargerImage?file=00101_p", "address": "Cheung Kong Center, 2 Queen's Road Central, Central", "carPark": "Cheung Kong Centre", "groupID": "00101", "sockets": {"IECQSocket": "2"}, "TeslaWallConnector": "0", "longitude": "114.160314", "latitude": "22.279867", "district": "Central", "region": "Hong Kong Island", "free": "false", "party": "echarge", "connectServer": "true", "chargerCost": "$40.0 / 1 Hour 60.0"}, {"totalSockets": 6, "vacancyEV": 2, "Others": "0", "image": "http://www.hkev.com.hk/chargerImage?file=00201_p", "address": "Hong Kong Science Park Phase 2, 8 Science Park West Avenue, Sha Tin", "carPark": "Hong Kong Science Park Phase 2", "groupID": "00201", "sockets": {"IECComSocket": "2", "IECQSocket": "4"}, "TeslaWallConnector": "0", "longitude": "114.209405", "latitude": "22.427615", "district": "Sha Tin", "region": "New Territories", "free": "true", "party": "echarge", "connectServer": "true", "chargerCost": "Free"}, {"totalSockets": -1, "vacancyEV": -1, "Others": "0", "image": "http://www.hkev.com.hk/chargerImage?file=00507_p", "address": "DCH Building, 20 Kai Cheung Road, Kowloon Bay", "carPark": "DCH Building", "groupID": "00507", "TeslaWallConnector": "0", "longitude": "114.207429", "latitude": "22.324363", "district": "Kowloon Bay", "region": "Kowloon", "free": "true", "party": "echarge", "connectServer": "false", "chargerCost": "Free"}, {"totalSockets": -1, "vacancyEV": -1, "Others": "0", "image": "http://www.hkev.com.hk/chargerImage?file=00508_p", "address": "Shanghai", "carPark": "EV Power Group (Shanghai)", "groupID": "00508", "TeslaWallConnector": "0", "longitude": "121.194542", "latitude": "31.188524", "district": "Shanghai", "region": "China", "free": "false", "party": "echarge", "connectServer": "false", "chargerCost": "$5.0 / 1 Hour 60.0"}, {"totalSockets": -1, "vacancyEV": -1, "Others": "0", "image": "http://www.hkev.com.hk/chargerImage?file=00509_p", "address": "Beijing", "carPark": "EV Power Group (Beijing)", "groupID": "00509", "TeslaWallConnector": "0", "longitude": "0.0", "latitude": "0.0", "district": "Beijing", "region": "China", "free": "true", "party": "echarge", "connectServer": "false", "chargerCost": "Free"}, {"totalSockets": 20, "vacancyEV": 3, "Others": "0", "image": "http://www.hkev.com.hk/chargerImage?file=00901_p", "address": "Zone E Car Park, West Kowloon Cultural District, West Kowloon", "carPark": "West Kowloon Cultural District,", "groupID": "00901", "TeslaWallConnector": "0", "longitude": "114.155993", "latitude": "22.300416", "district": "West Kowloon", "sockets": {"IECSocket": "20"}, "region": "Kowloon", "free": "false", "party": "echarge", "connectServer": "true", "chargerCost": "$18.0 / 1 Hour 60.0"}, {"totalSockets": 2, "vacancyEV": 0, "Others": "0", "image": "http://www.hkev.com.hk/chargerImage?file=01001_p", "address": "Amoy Plaza, Ngau Tau Kok Road, Kowloon Bay", "carPark": "Amoy Plaza", "groupID": "01001", "TeslaWallConnector": "0", "longitude": "114.216989", "latitude": "22.32488", "district": "Kowloon Bay", "sockets": {"BSSocket": "2"}, "region": "Kowloon", "free": "true", "party": "echarge", "connectServer": "true", "chargerCost": "Free"}, {"totalSockets": 2, "vacancyEV": 0, "Others": "0", "image": "http://www.hkev.com.hk/chargerImage?file=01002_p", "address": "Kornhill Plaza (South), 1-2 Kornhill Road, Quarry Bay", "carPark": "Kornhill Plaza (south)", "groupID": "01002", "sockets": {"IECQSocket": "2"}, "TeslaWallConnector": "0", "longitude": "114.216843", "latitude": "22.284092", "district": "Quarry Bay", "region": "Hong Kong Island", "free": "true", "party": "echarge", "connectServer": "true", "chargerCost": "Free"}, {"totalSockets": 2, "vacancyEV": 1, "Others": "0", "image": "http://www.hkev.com.hk/chargerImage?file=01003_p", "address": "Gala Place, 56 Dundas Street, Mong Kok", "carPark": "Gala Place", "groupID": "01003", "TeslaWallConnector": "0", "longitude": "114.171232", "latitude": "22.315479", "district": "Mong Kok", "sockets": {"BSSocket": "2"}, "region": "Kowloon", "free": "true", "party": "echarge", "connectServer": "true", "chargerCost": "Free"}, {"totalSockets": 2, "vacancyEV": 1, "Others": "0", "image": "http://www.hkev.com.hk/chargerImage?file=01101_p", "address": "Laws Commercial Plaza, 788 Cheung Sha Wan Road, Cheung Sha Wan", "carPark": "Laws Commercial Plaza", "groupID": "01101", "TeslaWallConnector": "0", "longitude": "114.150077", "latitude": "22.338124", "district": "Cheung Sha Wan", "sockets": {"IECSocket": "2"}, "region": "Kowloon", "free": "true", "party": "echarge", "connectServer": "false", "chargerCost": "Free"}, {"totalSockets": 3, "vacancyEV": 1, "Others": "0", "image": "http://www.hkev.com.hk/chargerImage?file=01201_p", "address": "Double Cove Place, 8 Wu Kai Sha Road, Ma On Shan", "carPark": "Double Cove Place", "groupID": "01201", "TeslaWallConnector": "0", "longitude": "114.240615", "latitude": "22.4309", "district": "Ma On Shan", "sockets": {"IECSocket": "3"}, "region": "New Territories", "free": "true", "party": "echarge", "connectServer": "true", "chargerCost": "Free"}, {"totalSockets": 1, "vacancyEV": 0, "Others": "0", "image": "http://www.hkev.com.hk/chargerImage?file=01202_p", "address": "AIA Financial Centre, 712 Prince Edward Road East, San Po Kong", "carPark": "AIA Financial Centre", "groupID": "01202", "TeslaWallConnector": "0", "longitude": "114.1863127", "latitude": "22.294719", "district": "San Po Kong", "sockets": {"IECSocket": "1"}, "region": "Kowloon", "free": "false", "party": "echarge", "connectServer": "true", "chargerCost": "$20.0 / 1 Hour 60.0"}, {"totalSockets": 2, "vacancyEV": 1, "Others": "0", "image": "http://www.hkev.com.hk/chargerImage?file=01203_p", "address": "AIA Tower, 183 Electric Road, North Point", "carPark": "AIA Tower", "groupID": "01203", "TeslaWallConnector": "0", "longitude": "114.192574", "latitude": "22.288341", "district": "North Point", "sockets": {"IECSocket": "2"}, "region": "Hong Kong Island", "free": "false", "party": "echarge", "connectServer": "true", "chargerCost": "$20.0 / 1 Hour 60.0"}, {"totalSockets": 3, "vacancyEV": 1, "Others": "0", "image": "http://www.hkev.com.hk/chargerImage?file=01204_p", "address": "Manulife Financial Centre, 223 Wai Yip Street, Kwun Tong", "carPark": "Manulife Financial Centre", "groupID": "01204", "TeslaWallConnector": "0", "longitude": "114.2211513", "latitude": "22.3077429", "district": "Kwun Tong", "sockets": {"IECSocket": "3"}, "region": "Kowloon", "free": "false", "party": "echarge", "connectServer": "true", "chargerCost": "$20.0 / 1 Hour 60.0"}, {"totalSockets": 1, "vacancyEV": 0, "Others": "0", "image": "http://www.hkev.com.hk/chargerImage?file=01401_p", "address": "Lee Garden One, 33 Hysan Avenue, Causeway Bay", "carPark": "Lee Garden 1", "groupID": "01401", "TeslaWallConnector": "0", "longitude": "114.184518", "latitude": "22.278128", "district": "Causeway Bay", "sockets": {"IECSocket": "1"}, "region": "Hong Kong Island", "free": "true", "party": "echarge", "connectServer": "false", "chargerCost": "Free"}, {"totalSockets": 1, "vacancyEV": 0, "Others": "0", "image": "http://www.hkev.com.hk/chargerImage?file=01402_p", "address": "Lee Garden Two, 2-38 Yun Ping Road, Causeway Bay", "carPark": "Lee Garden 2", "groupID": "01402", "TeslaWallConnector": "0", "longitude": "114.185085", "latitude": "22.27895", "district": "Causeway Bay", "sockets": {"IECSocket": "1"}, "region": "Hong Kong Island", "free": "true", "party": "echarge", "connectServer": "false", "chargerCost": "Free"}, {"totalSockets": 1, "vacancyEV": 0, "Others": "0", "image": "http://www.hkev.com.hk/chargerImage?file=01403_p", "address": "Leighton Centre, 77 Leighton Road, Causeway Bay", "carPark": "Leighton Centre", "groupID": "01403", "TeslaWallConnector": "0", "longitude": "114.183143", "latitude": "22.277995", "district": "Causeway Bay", "sockets": {"IECSocket": "1"}, "region": "Hong Kong Island", "free": "true", "party": "echarge", "connectServer": "false", "chargerCost": "Free"}, {"totalSockets": 2, "vacancyEV": 0, "Others": "0", "image": "http://www.hkev.com.hk/chargerImage?file=01602_p", "address": "Phase 3, New Town Plaza, 2-8 Sha Tin Centre Street, Sha Tin", "carPark": "New Town Plaza III", "groupID": "01602", "sockets": {"IECComSocket": "1", "CdMSocket": "1"}, "TeslaWallConnector": "0", "longitude": "114.187072", "latitude": "22.380166", "district": "Sha Tin", "region": "New Territories", "free": "false", "party": "echarge", "connectServer": "true", "chargerCost": "$24.0 / 15 Minute(s) 15.0"}, {"totalSockets": 1, "vacancyEV": 1, "Others": "0", "image": "http://www.hkev.com.hk/chargerImage?file=01603_p", "address": "East Point City, 8 Chung Wa Road, Tseung Kwan O", "carPark": "East Point City", "groupID": "01603", "TeslaWallConnector": "0", "longitude": "114.265961", "latitude": "22.315644", "district": "Tseung Kwan O", "sockets": {"IECSocket": "1"}, "region": "New Territories", "free": "true", "party": "echarge", "connectServer": "true", "chargerCost": "Free"}, {"totalSockets": 2, "vacancyEV": 1, "Others": "0", "image": "http://www.hkev.com.hk/chargerImage?file=01604_p", "address": "World Trade Centre, 280 Gloucester Road, Causeway Bay", "carPark": "World Trade Centre", "groupID": "01604", "sockets": {"IECQSocket": "2"}, "TeslaWallConnector": "0", "longitude": "114.184205", "latitude": "22.281579", "district": "Causeway Bay", "region": "Hong Kong Island", "free": "true", "party": "echarge", "connectServer": "true", "chargerCost": "Free"}, {"totalSockets": 2, "vacancyEV": 0, "Others": "0", "image": "http://www.hkev.com.hk/chargerImage?file=01701_p", "address": "K11 Art Mall, 18 Hanoi Road, Tsim Sha Tsui", "carPark": "K11 Art Mall", "groupID": "01701", "sockets": {"IECComSocket": "1", "IECQSocket": "1"}, "TeslaWallConnector": "0", "longitude": "114.173546", "latitude": "22.297456", "district": "Tsim Sha Tsui", "region": "Kowloon", "free": "true", "party": "echarge", "connectServer": "true", "chargerCost": "Free"}, {"totalSockets": 18, "vacancyEV": 1, "Others": "0", "image": "http://www.hkev.com.hk/chargerImage?file=01702_p", "address": "K11 MUSEA / K11 ATELIER Victoria Dockside, 18 Salisbury Road, Tsim Sha Tsui", "carPark": "K11 MUSEA / K11 ATELIER Victoria Dockside", "groupID": "01702", "sockets": {"IECComSocket": "2", "IECQSocket": "14", "CdMSocket": "2"}, "TeslaWallConnector": "0", "longitude": "114.175757", "latitude": "22.295111", "district": "Tsim Sha Tsui", "region": "Kowloon", "free": "true", "party": "echarge", "connectServer": "false", "chargerCost": "Free"}, {"totalSockets": 2, "vacancyEV": 0, "Others": "0", "image": "http://www.hkev.com.hk/chargerImage?file=01703_p", "address": "K11 ATELIER King's Road, 728 King's Road, Quarry Bay", "carPark": "K11 ATELIER King's Road", "groupID": "01703", "TeslaWallConnector": "0", "longitude": "114.207472", "latitude": "22.29153", "district": "Quarry Bay", "sockets": {"IECSocket": "2"}, "region": "Hong Kong Island", "free": "true", "party": "echarge", "connectServer": "false", "chargerCost": "Free"}, {"totalSockets": 3, "vacancyEV": 1, "Others": "0", "image": "http://www.hkev.com.hk/chargerImage?file=01901_p", "address": "One Pacific Place, 88 Queensway, Admiralty", "carPark": "One Pacific Place", "groupID": "01901", "sockets": {"IECComSocket": "1", "IECQSocket": "2"}, "TeslaWallConnector": "0", "longitude": "114.165539", "latitude": "22.277227", "district": "Admiralty", "region": "Hong Kong Island", "free": "true", "party": "echarge", "connectServer": "true", "chargerCost": "Free"}, {"totalSockets": 2, "vacancyEV": 0, "Others": "0", "image": "http://www.hkev.com.hk/chargerImage?file=01902_p", "address": "Berkshire House, 25 Westlands Road, Quarry Bay", "carPark": "Berkshire House", "groupID": "01902", "sockets": {"IECQSocket": "2"}, "TeslaWallConnector": "0", "longitude": "114.213436", "latitude": "22.287728", "district": "Quarry Bay", "region": "Hong Kong Island", "free": "true", "party": "echarge", "connectServer": "true", "chargerCost": "Free"}, {"totalSockets": 6, "vacancyEV": 1, "Others": "0", "image": "http://www.hkev.com.hk/chargerImage?file=01903_p", "address": "Cityplaza, 18 Tai Koo Shing Road, Quarry Bay", "carPark": "Cityplaza", "groupID": "01903", "sockets": {"IECQSocket": "6"}, "TeslaWallConnector": "0", "longitude": "114.217398", "latitude": "22.286966", "district": "Quarry Bay", "region": "Hong Kong Island", "free": "true", "party": "echarge", "connectServer": "true", "chargerCost": "Free"}, {"totalSockets": 5, "vacancyEV": 0, "Others": "0", "image": "http://www.hkev.com.hk/chargerImage?file=01904_p", "address": "One Pacific Place, 88 Queensway, Admiralty", "carPark": "One Pacific Place", "groupID": "01904", "sockets": {"IECQSocket": "5"}, "TeslaWallConnector": "0", "longitude": "114.165539", "latitude": "22.277227", "district": "Admiralty", "region": "Hong Kong Island", "free": "true", "party": "echarge", "connectServer": "true", "chargerCost": "Free"}, {"totalSockets": 6, "vacancyEV": 3, "Others": "0", "image": "http://www.hkev.com.hk/chargerImage?file=01905_p", "address": "Citygate Mall (S1 Car Park), 18 Tat Tung Road, Tung Chung", "carPark": "Citygate Mall (S1 Car Park)", "groupID": "01905", "sockets": {"IECQSocket": "6"}, "TeslaWallConnector": "0", "longitude": "113.94039", "latitude": "22.290381", "district": "Tung Chung", "region": "Lantau Island", "free": "true", "party": "echarge", "connectServer": "true", "chargerCost": "Free"}, {"totalSockets": 4, "vacancyEV": 2, "Others": "0", "image": "http://www.hkev.com.hk/chargerImage?file=01906_p", "address": "Three Pacific Place, Queen's Road East, Admiralty", "carPark": "Three Pacific Place", "groupID": "01906", "sockets": {"IECQSocket": "4"}, "TeslaWallConnector": "0", "longitude": "114.167966", "latitude": "22.276844", "district": "Admiralty", "region": "Hong Kong Island", "free": "true", "party": "echarge", "connectServer": "true", "chargerCost": "Free"}, {"totalSockets": 2, "vacancyEV": 1, "Others": "0", "image": "http://www.hkev.com.hk/chargerImage?file=03401_p", "address": "Pioneer Centre, 750-758 Nathan Road, Prince Edward", "carPark": "Pioneer Centre", "groupID": "03401", "sockets": {"IECQSocket": "2"}, "TeslaWallConnector": "0", "longitude": "114.169272", "latitude": "22.322609", "district": "Prince Edward", "region": "Kowloon", "free": "true", "party": "echarge", "connectServer": "true", "chargerCost": "Free"}, {"totalSockets": 4, "vacancyEV": 1, "Others": "0", "image": "http://www.hkev.com.hk/chargerImage?file=05402_p", "address": "Kowloonbay International Trade and Exhibition Centre, 1 Trademart Drive, Kowloon Bay", "carPark": "Kowloonbay International Trade and Exhibition Centre", "groupID": "05402", "sockets": {"IECQSocket": "4"}, "TeslaWallConnector": "0", "longitude": "114.204391", "latitude": "22.323177", "district": "Kowloon Bay", "region": "Kowloon", "free": "false", "party": "echarge", "connectServer": "true", "chargerCost": "$24.0 / 1 Hour 60.0"}, {"totalSockets": 4, "vacancyEV": 1, "Others": "0", "image": "http://www.hkev.com.hk/chargerImage?file=06601_p", "address": "Maritime Square, 33 Tsing King Road, Tsing Yi", "carPark": "Maritime Square", "groupID": "06601", "TeslaWallConnector": "0", "longitude": "114.106273", "latitude": "22.357508", "district": "Tsing Yi", "sockets": {"IECSocket": "1", "BSSocket": "3"}, "region": "New Territories", "free": "true", "party": "echarge", "connectServer": "true", "chargerCost": "Free"}, {"totalSockets": 2, "vacancyEV": 0, "Others": "0", "image": "http://www.hkev.com.hk/chargerImage?file=06602_p", "address": "Elements North Wing, 1 Austin Road West, Tsim Sha Tsui", "carPark": "Elements North", "groupID": "06602", "sockets": {"IECQSocket": "2"}, "TeslaWallConnector": "0", "longitude": "114.161118", "latitude": "22.306731", "district": "Tsim Sha Tsui", "region": "Kowloon", "free": "true", "party": "echarge", "connectServer": "true", "chargerCost": "Free"}, {"totalSockets": 3, "vacancyEV": 0, "Others": "0", "image": "http://www.hkev.com.hk/chargerImage?file=06603_p", "address": "Elements South Wing, 1 Austin Road West, Tsim Sha Tsui", "carPark": "Elements (South)", "groupID": "06603", "sockets": {"IECQSocket": "3"}, "TeslaWallConnector": "0", "longitude": "114.162706", "latitude": "22.302684", "district": "Tsim Sha Tsui", "region": "Kowloon", "free": "true", "party": "echarge", "connectServer": "true", "chargerCost": "Free"}, {"totalSockets": 3, "vacancyEV": 0, "Others": "0", "image": "http://www.hkev.com.hk/chargerImage?file=06604_p", "address": "Telford Plaza Phase 1, 33 Wai Yip Street, Kowloon Bay", "carPark": "Telford Plaza I", "groupID": "06604", "sockets": {"IECQSocket": "2", "BSSocket": "1"}, "TeslaWallConnector": "0", "longitude": "114.213185", "latitude": "22.322202", "district": "Kowloon Bay", "region": "Kowloon", "free": "true", "party": "echarge", "connectServer": "false", "chargerCost": "Free"}, {"totalSockets": 2, "vacancyEV": 0, "Others": "0", "image": "http://www.hkev.com.hk/chargerImage?file=06605_p", "address": "Telford Plaza Phase 1D, 33 Wai Yip Street, Kowloon Bay", "carPark": "Telford Plaza (Car Park D)", "groupID": "06605", "sockets": {"IECQSocket": "2"}, "TeslaWallConnector": "0", "longitude": "114.211914", "latitude": "22.322339", "district": "Kowloon Bay", "region": "Kowloon", "free": "true", "party": "echarge", "connectServer": "false", "chargerCost": "Free"}, {"totalSockets": 4, "vacancyEV": 1, "Others": "0", "image": "http://www.hkev.com.hk/chargerImage?file=06606_p", "address": "Telford Plaza Phase 2, 33 Wai Yip Street, Kowloon Bay", "carPark": "Telford Plaza II", "groupID": "06606", "sockets": {"IECQSocket": "3", "BSSocket": "1"}, "TeslaWallConnector": "0", "longitude": "114.212992", "latitude": "22.320718", "district": "Kowloon Bay", "region": "Kowloon", "free": "true", "party": "echarge", "connectServer": "false", "chargerCost": "Free"}, {"totalSockets": 1, "vacancyEV": 0, "Others": "0", "image": "http://www.hkev.com.hk/chargerImage?file=06607_p", "address": "Hanford Plaza, 6 Sam Shing Street, Tuen Mun", "carPark": "Hanford Plaza", "groupID": "06607", "TeslaWallConnector": "0", "longitude": "113.976893", "latitude": "22.381676", "district": "Tuen Mun", "sockets": {"IECSocket": "1"}, "region": "New Territories", "free": "true", "party": "echarge", "connectServer": "true", "chargerCost": "Free"}, {"totalSockets": 3, "vacancyEV": 1, "Others": "0", "image": "http://www.hkev.com.hk/chargerImage?file=06608_p", "address": "Sun Tuen Mun Shopping Centre, Tuen Tsing Lane, Tuen Mun", "carPark": "Sun Tuen Mun Shopping Centre", "groupID": "06608", "TeslaWallConnector": "0", "longitude": "113.964287", "latitude": "22.380926", "district": "Tuen Mun", "sockets": {"IECSocket": "3"}, "region": "New Territories", "free": "true", "party": "echarge", "connectServer": "true", "chargerCost": "Free"}, {"totalSockets": 3, "vacancyEV": 0, "Others": "0", "image": "http://www.hkev.com.hk/chargerImage?file=06609_p", "address": "Plaza Ascot, 1 Tsun King Road, Fo Tan", "carPark": "Plaza Ascot", "groupID": "06609", "sockets": {"IECQSocket": "2", "BSSocket": "1"}, "TeslaWallConnector": "0", "longitude": "114.200945", "latitude": "22.400071", "district": "Fo Tan", "region": "New Territories", "free": "true", "party": "echarge", "connectServer": "true", "chargerCost": "Free"}, {"totalSockets": 2, "vacancyEV": 1, "Others": "0", "image": "http://www.hkev.com.hk/chargerImage?file=06610_p", "address": "PopCorn Phase 2, 9 Tong Chun Street, Tseung Kwan O", "carPark": "PopCorn 2", "groupID": "06610", "sockets": {"IECQSocket": "1", "BSSocket": "1"}, "TeslaWallConnector": "0", "longitude": "114.2616103", "latitude": "22.3094283", "district": "Tseung Kwan O", "region": "New Territories", "free": "true", "party": "echarge", "connectServer": "true", "chargerCost": "Free"}, {"totalSockets": 3, "vacancyEV": 0, "Others": "0", "image": "http://www.hkev.com.hk/chargerImage?file=06611_p", "address": "Paradise Mall (West), 100 Shing Tai Road, Chai Wan", "carPark": "Paradise Mall (West)", "groupID": "06611", "sockets": {"IECQSocket": "2", "BSSocket": "1"}, "TeslaWallConnector": "0", "longitude": "114.239174", "latitude": "22.278064", "district": "Chai Wan", "region": "Hong Kong Island", "free": "true", "party": "echarge", "connectServer": "true", "chargerCost": "Free"}, {"totalSockets": 2, "vacancyEV": 1, "Others": "0", "image": "http://www.hkev.com.hk/chargerImage?file=06612_p", "address": "PopCorn Phase 1, 9 Tong Yin Street, Tseung Kwan O", "carPark": "PopCorn 1", "groupID": "06612", "sockets": {"IECQSocket": "1", "BSSocket": "1"}, "TeslaWallConnector": "0", "longitude": "114.258795", "latitude": "22.308393", "district": "Tseung Kwan O", "region": "New Territories", "free": "true", "party": "echarge", "connectServer": "true", "chargerCost": "Free"}, {"totalSockets": 8, "vacancyEV": 1, "Others": "0", "image": "http://www.hkev.com.hk/chargerImage?file=06614_p", "address": "Two International Finance Centre, 8 Finance Street, Central", "carPark": "Two International Finance Centre", "groupID": "06614", "sockets": {"IECQSocket": "7", "SAESocket": "1"}, "TeslaWallConnector": "0", "longitude": "114.157479", "latitude": "22.286555", "district": "Central", "region": "Hong Kong Island", "free": "true", "party": "echarge", "connectServer": "true", "chargerCost": "Free"}, {"totalSockets": 1, "vacancyEV": 0, "Others": "0", "image": "http://www.hkev.com.hk/chargerImage?file=06615_p", "address": "One International Finance Centre, 1 Harbour View Street, Central", "carPark": "One International Finance Centre", "groupID": "06615", "TeslaWallConnector": "0", "longitude": "114.156973", "latitude": "22.285408", "district": "Central", "sockets": {"IECSocket": "1"}, "region": "Hong Kong Island", "free": "true", "party": "echarge", "connectServer": "true", "chargerCost": "Free"}, {"totalSockets": 2, "vacancyEV": 0, "Others": "0", "image": "http://www.hkev.com.hk/chargerImage?file=06616_p", "address": "Hung Hom Station Multi-storey Car Park, Hung Hom", "carPark": "Hung Hom Station Multi-storey Car Park", "groupID": "06616", "sockets": {"IECQSocket": "1", "IECSocket": "1"}, "TeslaWallConnector": "0", "longitude": "114.181742", "latitude": "22.303535", "district": "Hung Hom", "region": "Kowloon", "free": "true", "party": "echarge", "connectServer": "true", "chargerCost": "Free"}, {"totalSockets": 2, "vacancyEV": 1, "Others": "0", "image": "http://www.hkev.com.hk/chargerImage?file=06617_p", "address": "Infinity Eight (Phase 1), 8 Clear Water Bay Road, Ngau Tau Kok", "carPark": "Choi Hung Park-and-Ride Public Car Park ", "groupID": "06617", "sockets": {"IECQSocket": "2"}, "TeslaWallConnector": "0", "longitude": "114.209868", "latitude": "22.333862", "district": "Ngau Tau Kok", "region": "Kowloon", "free": "true", "party": "echarge", "connectServer": "true", "chargerCost": "Free"}, {"totalSockets": 2, "vacancyEV": 0, "Others": "0", "image": "http://www.hkev.com.hk/chargerImage?file=06618_p", "address": "Festival City Phase 1, 1 Mei Tin Road, Tai Wai", "carPark": "Festival City Phase 1", "groupID": "06618", "sockets": {"IECQSocket": "2"}, "TeslaWallConnector": "0", "longitude": "114.175691403951", "latitude": "22.3702293370378", "district": "Tai Wai", "region": "New Territories", "free": "false", "party": "echarge", "connectServer": "true", "chargerCost": "$50.0 / 1 Hour 60.0"}, {"totalSockets": 4, "vacancyEV": 1, "Others": "0", "image": "http://www.hkev.com.hk/chargerImage?file=06801_p", "address": "Kerry Centre, 683 King's Road, Quarry Bay", "carPark": "Kerry Centre", "groupID": "06801", "TeslaWallConnector": "0", "longitude": "114.210176", "latitude": "22.290499", "district": "Quarry Bay", "sockets": {"IECSocket": "4"}, "region": "Hong Kong Island", "free": "true", "party": "echarge", "connectServer": "true", "chargerCost": "Free"}, {"totalSockets": 12, "vacancyEV": 5, "Others": "0", "image": "http://www.hkev.com.hk/chargerImage?file=12701_p", "address": "Windsor House, 311 Gloucester Road, Causeway Bay", "carPark": "Windsor House", "groupID": "12701", "sockets": {"IECQSocket": "1", "IECSocket": "11"}, "TeslaWallConnector": "0", "longitude": "114.186779", "latitude": "22.280561", "district": "Causeway Bay", "region": "Hong Kong Island", "free": "true", "party": "echarge", "connectServer": "true", "chargerCost": "Free"}, {"totalSockets": 2, "vacancyEV": 1, "Others": "0", "image": "http://www.hkev.com.hk/chargerImage?file=12702_p", "address": "The One, 100 Nathan Road, Tsim Sha Tsui", "carPark": "The One", "groupID": "12702", "TeslaWallConnector": "0", "longitude": "114.172561", "latitude": "22.299796", "district": "Tsim Sha Tsui", "sockets": {"IECSocket": "2"}, "region": "Kowloon", "free": "true", "party": "echarge", "connectServer": "false", "chargerCost": "Free"}, {"totalSockets": 2, "vacancyEV": 0, "Others": "0", "image": "http://www.hkev.com.hk/chargerImage?file=16301_p", "address": "The Pluse, 28 Beach Road, Repulse Bay", "carPark": "The Pulse", "groupID": "16301", "sockets": {"IECComSocket": "1", "IECSocket": "1"}, "TeslaWallConnector": "0", "longitude": "114.198575", "latitude": "22.235273", "district": "Repulse Bay", "region": "Hong Kong Island", "free": "true", "party": "echarge", "connectServer": "true", "chargerCost": "Free"}, {"totalSockets": 1, "vacancyEV": 0, "Others": "0", "image": "http://www.hkev.com.hk/chargerImage?file=27201_p", "address": "Shui On Centre, 6-8 Harbour Road, Wan Chai", "carPark": "Shui On Centre (Support EV-Link Only)", "groupID": "27201", "TeslaWallConnector": "0", "longitude": "114.171584", "latitude": "22.280447", "district": "Wan Chai", "sockets": {"IECSocket": "1"}, "region": "Hong Kong Island", "free": "true", "party": "echarge", "connectServer": "false", "chargerCost": "Free"}, {"totalSockets": 2, "vacancyEV": 0, "Others": "0", "image": "http://www.hkev.com.hk/chargerImage?file=40118_p", "address": "Mount Pavilia, 663 Clear Water Bay Road,, Sai Kung", "carPark": "Mount Pavilia", "groupID": "40118", "sockets": {"IECQSocket": "2"}, "TeslaWallConnector": "0", "longitude": "114.261242", "latitude": "22.336742", "district": "Sai Kung", "region": "New Territories", "free": "false", "party": "echarge", "connectServer": "true", "chargerCost": "$35.0 / 1 Hour 60.0"}, {"totalSockets": 4, "vacancyEV": 0, "Others": "0", "image": "http://www.hkev.com.hk/chargerImage?file=40133_p", "address": "LOHAS Park LP 7, Wan Po Road, Tseung Kwan O", "carPark": "The LOHAS", "groupID": "40133", "sockets": {"IECQSocket": "4"}, "TeslaWallConnector": "0", "longitude": "114.27025", "latitude": "22.294472", "district": "Tseung Kwan O", "region": "New Territories", "free": "true", "party": "echarge", "connectServer": "true", "chargerCost": "Free"}, {"totalSockets": 2, "vacancyEV": 0, "Others": "0", "image": "http://www.hkev.com.hk/chargerImage?file=40144_p", "address": "Kam Fung Building, 171 Aberdeen Main Road, Aberdeen", "carPark": "Kam Fung Building", "groupID": "40144", "TeslaWallConnector": "0", "longitude": "114.155362385818", "latitude": "22.2485875150452", "district": "Aberdeen", "sockets": {"IECSocket": "2"}, "region": "Hong Kong Island", "free": "false", "party": "echarge", "connectServer": "true", "chargerCost": "$20.0 / 1 Hour 60.0"}, {"totalSockets": -1, "vacancyEV": -1, "Others": "0", "image": "http://www.hkev.com.hk/chargerImage?file=40161_p", "address": "Gourmet Place, Whampoa Garden, Hung Hom", "carPark": "Gourmet Place", "groupID": "40161", "TeslaWallConnector": "0", "longitude": "114.19065208684", "latitude": "22.3048472453647", "district": "Hung Hom", "region": "Kowloon", "free": "true", "party": "echarge", "connectServer": "true", "chargerCost": "Free"}, {"totalSockets": 3, "vacancyEV": 1, "Others": "0", "image": "http://www.hkev.com.hk/chargerImage?file=41002_p", "address": "Grand Promenade, 38 Tai Hong Street, Sai Wan Ho", "carPark": "Grand Promenade", "groupID": "41002", "TeslaWallConnector": "0", "longitude": "114.2218583", "latitude": "22.2851649", "district": "Sai Wan Ho", "sockets": {"IECSocket": "3"}, "region": "Hong Kong Island", "free": "false", "party": "echarge", "connectServer": "true", "chargerCost": "$20.0 / 1 Hour 60.0"}, {"totalSockets": -1, "vacancyEV": -1, "Others": "0", "image": "http://www.hkev.com.hk/chargerImage?file=42901_p", "address": "8th Phase, Mei Foo Sun Chuen, 122 - 126 Broadway, Mei Foo", "carPark": "Mei Foo Sun Chuen Stage 8 (Resident use only)", "groupID": "42901", "TeslaWallConnector": "0", "longitude": "114.189406", "latitude": "22.312934", "district": "Mei Foo", "region": "Kowloon", "free": "false", "party": "echarge", "connectServer": "true", "chargerCost": "$15.0 / 1 Hour 60.0"}, {"totalSockets": 36, "vacancyEV": 6, "Others": "0", "image": "http://www.hkev.com.hk/chargerImage?file=60901_p", "address": "City Hall Multi-storey Car Park, Edinburgh Place, Central", "carPark": "City Hall Multi-storey Car Park", "groupID": "60901", "TeslaWallConnector": "0", "longitude": "114.162012", "latitude": "22.281919", "district": "Central", "sockets": {"IECSocket": "30", "BSSocket": "6"}, "region": "Hong Kong Island", "free": "true", "party": "echarge", "connectServer": "false", "chargerCost": "Free"}, {"totalSockets": 41, "vacancyEV": 27, "Others": "0", "image": "http://www.hkev.com.hk/chargerImage?file=60902_p", "address": "Tin Hau Multi-storey Car Park, Park Tower, Lau Sin Street, Tin Hau", "carPark": "Tin Hau Multi-storey Car Park", "groupID": "60902", "TeslaWallConnector": "0", "longitude": "114.191737", "latitude": "22.2829", "district": "Tin Hau", "sockets": {"IECSocket": "35", "BSSocket": "6"}, "region": "Hong Kong Island", "free": "true", "party": "echarge", "connectServer": "false", "chargerCost": "Free"}, {"totalSockets": 32, "vacancyEV": 4, "Others": "0", "image": "http://www.hkev.com.hk/chargerImage?file=60903_p", "address": "Shau Kei Wan Multi-storey Car Park, Mong Lung Street, Shau Kei Wan", "carPark": "Shau Kei Wan Multi-storey Car Park", "groupID": "60903", "TeslaWallConnector": "0", "longitude": "114.229513", "latitude": "22.278706", "district": "Shau Kei Wan", "sockets": {"IECSocket": "31", "BSSocket": "1"}, "region": "Hong Kong Island", "free": "true", "party": "echarge", "connectServer": "false", "chargerCost": "Free"}, {"totalSockets": 12, "vacancyEV": 2, "Others": "0", "image": "http://www.hkev.com.hk/chargerImage?file=60904_p", "address": "Rumsey Street Multi-storey Car Park, Rumsey Street, Sheung Wan", "carPark": "Rumsey Street Multi-storey Car Park", "groupID": "60904", "TeslaWallConnector": "0", "longitude": "114.153344", "latitude": "22.287412", "district": "Sheung Wan", "sockets": {"IECSocket": "12"}, "region": "Hong Kong Island", "free": "true", "party": "echarge", "connectServer": "false", "chargerCost": "Free"}, {"totalSockets": 40, "vacancyEV": 10, "Others": "0", "image": "http://www.hkev.com.hk/chargerImage?file=60905_p", "address": "Sheung Fung Street Market Multi-storey Car Park, Sheung Fung Street, Wong Tai Sin", "carPark": "Sheung Fung Street Market Multi-storey Car Park", "groupID": "60905", "TeslaWallConnector": "0", "longitude": "114.197337", "latitude": "22.343987", "district": "Wong Tai Sin", "sockets": {"IECSocket": "35", "BSSocket": "5"}, "region": "Kowloon", "free": "true", "party": "echarge", "connectServer": "false", "chargerCost": "Free"}, {"totalSockets": 33, "vacancyEV": 12, "Others": "0", "image": "http://www.hkev.com.hk/chargerImage?file=60906_p", "address": "Tsuen Wan Multi-storey Car Park, Sai Lau Kok Road, Tsuen Wan", "carPark": "Tsuen Wan Multi-storey Car Park", "groupID": "60906", "TeslaWallConnector": "0", "longitude": "114.118826", "latitude": "22.372623", "district": "Tsuen Wan", "sockets": {"IECSocket": "29", "BSSocket": "4"}, "region": "New Territories", "free": "true", "party": "echarge", "connectServer": "false", "chargerCost": "Free"}, {"totalSockets": 28, "vacancyEV": 7, "Others": "0", "image": "http://www.hkev.com.hk/chargerImage?file=60907_p", "address": "Cheung Sha Wan Government Offices, Cheung Sha Wan Road, Cheung Sha Wan", "carPark": "Cheung Sha Wan Government Offices", "groupID": "60907", "TeslaWallConnector": "0", "longitude": "114.160408", "latitude": "22.331906", "district": "Cheung Sha Wan", "sockets": {"IECSocket": "26", "BSSocket": "2"}, "region": "Kowloon", "free": "true", "party": "echarge", "connectServer": "false", "chargerCost": "Free"}, {"totalSockets": 12, "vacancyEV": 3, "Others": "0", "image": "http://www.hkev.com.hk/chargerImage?file=61001_p", "address": "City Hall Multi-storey Car Park, Edinburgh Place, Central", "carPark": "City Hall Multi-storey Car Park", "groupID": "61001", "TeslaWallConnector": "0", "longitude": "114.16211", "latitude": "22.282002", "district": "Central", "sockets": {"IECSocket": "6", "BSSocket": "6"}, "region": "Hong Kong Island", "free": "true", "party": "echarge", "connectServer": "false", "chargerCost": "Free"}, {"totalSockets": 16, "vacancyEV": 2, "Others": "0", "image": "http://www.hkev.com.hk/chargerImage?file=61002_p", "address": "Star Ferry Multi-storey Car Park, 9 Edinburgh Square, Central", "carPark": "Star Ferry Car Park", "groupID": "61002", "TeslaWallConnector": "0", "longitude": "114.160468", "latitude": "22.282805", "district": "Central", "sockets": {"IECSocket": "8", "BSSocket": "8"}, "region": "Hong Kong Island", "free": "true", "party": "echarge", "connectServer": "false", "chargerCost": "Free"}, {"totalSockets": 12, "vacancyEV": 8, "Others": "0", "image": "http://www.hkev.com.hk/chargerImage?file=61003_p", "address": "Tin Hau Multi-storey Car Park, Park Tower, Lau Sin Street, Tin Hau", "carPark": "Tin Hau Multi-storey Car Park", "groupID": "61003", "TeslaWallConnector": "0", "longitude": "114.191613", "latitude": "22.282931", "district": "Tin Hau", "sockets": {"IECSocket": "6", "BSSocket": "6"}, "region": "Hong Kong Island", "free": "true", "party": "echarge", "connectServer": "false", "chargerCost": "Free"}, {"totalSockets": 10, "vacancyEV": 2, "Others": "0", "image": "http://www.hkev.com.hk/chargerImage?file=61004_p", "address": "Shau Kei Wan Car Park, Mong Lung Street, Shau Kei Wan", "carPark": "Shau Kei Wan Car Park", "groupID": "61004", "TeslaWallConnector": "0", "longitude": "114.229354", "latitude": "22.278736", "district": "Shau Kei Wan", "sockets": {"IECSocket": "5", "BSSocket": "5"}, "region": "Hong Kong Island", "free": "true", "party": "echarge", "connectServer": "false", "chargerCost": "Free"}, {"totalSockets": 14, "vacancyEV": 5, "Others": "0", "image": "http://www.hkev.com.hk/chargerImage?file=61005_p", "address": "Rumsey Street Multi-storey Car Park, 2 Rumsey Street, Sheung Wan", "carPark": "Rumsey Street Car Park", "groupID": "61005", "TeslaWallConnector": "0", "longitude": "114.153211", "latitude": "22.287558", "district": "Sheung Wan", "sockets": {"IECSocket": "7", "BSSocket": "7"}, "region": "Hong Kong Island", "free": "true", "party": "echarge", "connectServer": "false", "chargerCost": "Free"}, {"totalSockets": 12, "vacancyEV": 1, "Others": "0", "image": "http://www.hkev.com.hk/chargerImage?file=61007_p", "address": "Yaumatei Carpark Building, 250 Sheunghai Street, Yau Ma Tei", "carPark": "Yau Ma Tei Car Park", "groupID": "61007", "TeslaWallConnector": "0", "longitude": "114.170646", "latitude": "22.309351", "district": "Yau Ma Tei", "sockets": {"IECSocket": "6", "BSSocket": "6"}, "region": "Kowloon", "free": "true", "party": "echarge", "connectServer": "false", "chargerCost": "Free"}, {"totalSockets": 10, "vacancyEV": 4, "Others": "0", "image": "http://www.hkev.com.hk/chargerImage?file=61008_p", "address": "Sheung Fung Street Market Multi-storey Car Park, Sheung Fung Street, Wong Tai Sin", "carPark": "Sheung Fung Street Market Multi-storey Car Park", "groupID": "61008", "TeslaWallConnector": "0", "longitude": "114.197235", "latitude": "22.343983", "district": "Wong Tai Sin", "sockets": {"IECSocket": "5", "BSSocket": "5"}, "region": "Kowloon", "free": "true", "party": "echarge", "connectServer": "false", "chargerCost": "Free"}, {"totalSockets": 10, "vacancyEV": 6, "Others": "0", "image": "http://www.hkev.com.hk/chargerImage?file=61009_p", "address": "Tsuen Wan Multi-storey Car Park, Sai Lau Kok Road, Tsuen Wan", "carPark": "Tsuen Wan Multi-storey Car Park", "groupID": "61009", "TeslaWallConnector": "0", "longitude": "114.118696", "latitude": "22.372592", "district": "Tsuen Wan", "sockets": {"IECSocket": "5", "BSSocket": "5"}, "region": "New Territories", "free": "true", "party": "echarge", "connectServer": "false", "chargerCost": "Free"}, {"totalSockets": 22, "vacancyEV": 6, "Others": "0", "image": "http://www.hkev.com.hk/chargerImage?file=61010_p", "address": "Immigration Tower, 1 Harbour Road, Wan Chai", "carPark": "Wanchai Tower and Immigration Tower", "groupID": "61010", "TeslaWallConnector": "0", "longitude": "114.172518", "latitude": "22.280484", "district": "Wan Chai", "sockets": {"IECSocket": "11", "BSSocket": "11"}, "region": "Hong Kong Island", "free": "true", "party": "echarge", "connectServer": "false", "chargerCost": "Free"}, {"totalSockets": 14, "vacancyEV": 1, "Others": "0", "image": "http://www.hkev.com.hk/chargerImage?file=61011_p", "address": "Wan Chai Tower, 1 Harbour Road, Wan Chai", "carPark": "Wanchai Tower and Immigration Tower", "groupID": "61011", "TeslaWallConnector": "0", "longitude": "114.172353", "latitude": "22.279951", "district": "Wan Chai", "sockets": {"IECSocket": "7", "BSSocket": "7"}, "region": "Hong Kong Island", "free": "true", "party": "echarge", "connectServer": "false", "chargerCost": "Free"}, {"totalSockets": 12, "vacancyEV": 6, "Others": "0", "image": "http://www.hkev.com.hk/chargerImage?file=61012_p", "address": "Queensway Government Offices, 66 Queensway, Admiralty", "carPark": "Queensway Government Offices", "groupID": "61012", "TeslaWallConnector": "0", "longitude": "114.164225", "latitude": "22.27781", "district": "Admiralty", "sockets": {"IECSocket": "6", "BSSocket": "6"}, "region": "Hong Kong Island", "free": "true", "party": "echarge", "connectServer": "false", "chargerCost": "Free"}, {"totalSockets": 12, "vacancyEV": 6, "Others": "0", "image": "http://www.hkev.com.hk/chargerImage?file=61013_p", "address": "North Point Government Offices, 333 Java Road, North Point", "carPark": "North Point Government Offices", "groupID": "61013", "TeslaWallConnector": "0", "longitude": "114.208602", "latitude": "22.292116", "district": "North Point", "sockets": {"IECSocket": "6", "BSSocket": "6"}, "region": "Hong Kong Island", "free": "true", "party": "echarge", "connectServer": "false", "chargerCost": "Free"}, {"totalSockets": 12, "vacancyEV": 0, "Others": "0", "image": "http://www.hkev.com.hk/chargerImage?file=61014_p", "address": "Cheung Sha Wan Government Offices, Cheung Sha Wan Road, Cheung Sha Wan", "carPark": "Cheung Sha Wan Government Offices", "groupID": "61014", "TeslaWallConnector": "0", "longitude": "114.160365", "latitude": "22.331737", "district": "Cheung Sha Wan", "sockets": {"IECSocket": "6", "BSSocket": "6"}, "region": "Kowloon", "free": "true", "party": "echarge", "connectServer": "false", "chargerCost": "Free"}, {"totalSockets": 12, "vacancyEV": 6, "Others": "0", "image": "http://www.hkev.com.hk/chargerImage?file=61015_p", "address": "Sai Kung Government Offices, 34 Chan Man Street, Sai Kung", "carPark": "Sai Kung Government Offices", "groupID": "61015", "TeslaWallConnector": "0", "longitude": "114.272331", "latitude": "22.381984", "district": "Sai Kung", "sockets": {"IECSocket": "6", "BSSocket": "6"}, "region": "New Territories", "free": "true", "party": "echarge", "connectServer": "false", "chargerCost": "Free"}, {"totalSockets": 12, "vacancyEV": 3, "Others": "0", "image": "http://www.hkev.com.hk/chargerImage?file=61016_p", "address": "Sha Tin Government Offices, 1 Sheung Wo Che Road, Sha Tin", "carPark": "Sha Tin Government Offices", "groupID": "61016", "TeslaWallConnector": "0", "longitude": "114.186997", "latitude": "22.386017", "district": "Sha Tin", "sockets": {"IECSocket": "6", "BSSocket": "6"}, "region": "New Territories", "free": "true", "party": "echarge", "connectServer": "false", "chargerCost": "Free"}, {"totalSockets": 12, "vacancyEV": 3, "Others": "0", "image": "http://www.hkev.com.hk/chargerImage?file=61017_p", "address": "North District Government Offices, 3 Pik Fung Road, Fanling", "carPark": "North District Government Offices", "groupID": "61017", "TeslaWallConnector": "0", "longitude": "114.13817", "latitude": "22.494656", "district": "Fanling", "sockets": {"IECSocket": "6", "BSSocket": "6"}, "region": "New Territories", "free": "true", "party": "echarge", "connectServer": "false", "chargerCost": "Free"}, {"totalSockets": 10, "vacancyEV": 3, "Others": "0", "image": "http://www.hkev.com.hk/chargerImage?file=61026_p", "address": "Star Ferry Multi-storey Car Park, 9 Edinburgh Square, Central", "carPark": "Star Ferry Car Park", "groupID": "61026", "TeslaWallConnector": "0", "longitude": "114.160396", "latitude": "22.282578", "district": "Central", "sockets": {"IECSocket": "5", "BSSocket": "5"}, "region": "Hong Kong Island", "free": "true", "party": "echarge", "connectServer": "false", "chargerCost": "Free"}, {"totalSockets": -1, "vacancyEV": -1, "Others": "0", "image": "http://www.hkev.com.hk/chargerImage?file=61029_p", "address": "North District Government Offices, 3 Pik Fung Road, Fanling", "carPark": "North District Government Offices", "groupID": "61029", "TeslaWallConnector": "0", "longitude": "114.13817", "latitude": "22.494656", "district": "Fanling", "region": "New Territories", "free": "-", "party": "echarge", "connectServer": "false", "chargerCost": "Free"}, {"totalSockets": 3, "vacancyEV": 1, "Others": "0", "image": "http://www.hkev.com.hk/chargerImage?file=61030_p", "address": "Sha Tin Government Offices, 1 Sheung Wo Che Road, Sha Tin", "carPark": "Sha Tin Government Offices", "groupID": "61030", "TeslaWallConnector": "0", "longitude": "114.186997", "latitude": "22.386017", "district": "Sha Tin", "sockets": {"IECSocket": "3"}, "region": "New Territories", "free": "true", "party": "echarge", "connectServer": "false", "chargerCost": "Free"}, {"totalSockets": -1, "vacancyEV": -1, "Others": "0", "image": "http://www.hkev.com.hk/chargerImage?file=70103_p", "address": "Ham Tin Kau Tsuen, DD336 Lot 27, Pui O", "carPark": "Ham Tin Villas", "groupID": "70103", "TeslaWallConnector": "0", "longitude": "113.980894704692", "latitude": "22.2421902284303", "district": "Pui O", "region": "Lantau Island", "free": "true", "party": "echarge", "connectServer": "true", "chargerCost": "Free"}, {"totalSockets": 2, "vacancyEV": 0, "Others": "0", "image": "http://www.hkev.com.hk/chargerImage?file=70119_p", "address": "Harbourside HQ, Lam Chak Street, Kowloon Bay", "carPark": "Harbourside HQ", "groupID": "70119", "TeslaWallConnector": "0", "longitude": "114.211598328825", "latitude": "22.3154852462329", "district": "Kowloon Bay", "sockets": {"IECSocket": "2"}, "region": "Kowloon", "free": "false", "party": "echarge", "connectServer": "true", "chargerCost": "$20.0 / 1 Hour 60.0"}, {"totalSockets": -1, "vacancyEV": -1, "Others": "0", "image": "http://www.hkev.com.hk/chargerImage?file=70121_p", "address": "Capital Centre, 151 Gloucester Road, Wan Chai", "carPark": "Capital Centre", "groupID": "70121", "TeslaWallConnector": "0", "longitude": "114.177280501351", "latitude": "22.2794302859607", "district": "Wan Chai", "region": "Hong Kong Island", "free": "false", "party": "echarge", "connectServer": "true", "chargerCost": "$24.0 / 1 Hour 60.0"}, {"totalSockets": 3, "vacancyEV": 0, "Others": "0", "image": "http://www.hkev.com.hk/chargerImage?file=70123_p", "address": "Manulife place, 348 Kwun Tong Road, Kwun Tong", "carPark": "Manulife place", "groupID": "70123", "TeslaWallConnector": "0", "longitude": "114.217061161565", "latitude": "22.3151490655633", "district": "Kwun Tong", "sockets": {"IECSocket": "3"}, "region": "Kowloon", "free": "true", "party": "echarge", "connectServer": "true", "chargerCost": "Free"}, {"totalSockets": 8, "vacancyEV": 2, "Others": "0", "image": "http://www.hkev.com.hk/chargerImage?file=70301_p", "address": "Hong Kong International School (Secondary Section), 1 Red Hill Road, Tai Tam", "carPark": "Hong Kong International School (Secondary Section)", "groupID": "70301", "TeslaWallConnector": "0", "longitude": "114.223233", "latitude": "22.237302", "district": "Tai Tam", "sockets": {"IECSocket": "4", "BSSocket": "4"}, "region": "Hong Kong Island", "free": "false", "party": "echarge", "connectServer": "true", "chargerCost": "$15.0 / 1 Hour 60.0"}, {"totalSockets": 6, "vacancyEV": 0, "Others": "0", "image": "http://www.hkev.com.hk/chargerImage?file=70302_p", "address": "Hong Kong International School (Primary School), 6 South Bay Close, Repulse Bay", "carPark": "Hong Kong International School (Primary School)", "groupID": "70302", "TeslaWallConnector": "0", "longitude": "114.201054", "latitude": "22.238804", "district": "Repulse Bay", "sockets": {"IECSocket": "3", "BSSocket": "3"}, "region": "Hong Kong Island", "free": "false", "party": "echarge", "connectServer": "true", "chargerCost": "$15.0 / 1 Hour 60.0"}, {"totalSockets": 10, "vacancyEV": 1, "Others": "0", "image": "http://www.hkev.com.hk/chargerImage?file=70303_p", "address": "Hong Kong International School, 23 South Bay Close, Repulse Bay", "carPark": "Hong Kong International School (Kindergarten)", "groupID": "70303", "TeslaWallConnector": "0", "longitude": "114.202126", "latitude": "22.238946", "district": "Repulse Bay", "sockets": {"IECSocket": "5", "BSSocket": "5"}, "region": "Hong Kong Island", "free": "false", "party": "echarge", "connectServer": "true", "chargerCost": "$15.0 / 1 Hour 60.0"}, {"totalSockets": 1, "vacancyEV": 0, "Others": "0", "image": "http://www.hkev.com.hk/chargerImage?file=73602_p", "address": "2W Building, Hong Kong Science Park, Sha Tin", "carPark": "Hong Kong Science Park (Private Use Only)", "groupID": "73602", "sockets": {"IECQSocket": "1"}, "TeslaWallConnector": "0", "longitude": "114.212868", "latitude": "22.424016", "district": "Sha Tin", "region": "New Territories", "free": "true", "party": "echarge", "connectServer": "true", "chargerCost": "Free"}, {"totalSockets": 2, "vacancyEV": 1, "Others": "0", "image": "http://www.hkev.com.hk/chargerImage?file=75201_p", "address": "Park Yoho, 18 Castle Peak Road, Yuen Long", "carPark": "Park Yoho Car Park Phase 1B", "groupID": "75201", "sockets": {"IECQSocket": "2"}, "TeslaWallConnector": "0", "longitude": "114.051663", "latitude": "22.451504", "district": "Yuen Long", "region": "New Territories", "free": "false", "party": "echarge", "connectServer": "true", "chargerCost": "$30.0 / 1 Hour 60.0"}, {"totalSockets": 2, "vacancyEV": 0, "Others": "0", "image": "http://www.hkev.com.hk/chargerImage?file=75202_p", "address": "Park Yoho 1B, Castle Peak Road, Yuen Long", "carPark": "Park Yoho Car Park Phase 2A", "groupID": "75202", "sockets": {"IECQSocket": "2"}, "TeslaWallConnector": "0", "longitude": "114.052776", "latitude": "22.450777", "district": "Yuen Long", "region": "New Territories", "free": "false", "party": "echarge", "connectServer": "true", "chargerCost": "$30.0 / 1 Hour 60.0"}, {"totalSockets": 1, "vacancyEV": 0, "Others": "0", "image": "http://www.hkev.com.hk/chargerImage?file=75204_p", "address": "Park Yoho Car Park Phase 2C, 18 Castle Peak Road, Yuen Long", "carPark": "Park Yoho Car Park Phase 2C", "groupID": "75204", "sockets": {"IECQSocket": "1"}, "TeslaWallConnector": "0", "longitude": "114.055121", "latitude": "22.451992", "district": "Yuen Long", "region": "New Territories", "free": "false", "party": "echarge", "connectServer": "true", "chargerCost": "$30.0 / 1 Hour 60.0"}, {"totalSockets": 6, "vacancyEV": 2, "Others": "0", "image": "http://www.hkev.com.hk/chargerImage?file=75801_p", "address": "Gateway-Tsing Yi, 8 Cheung Fai Road, Tsing Yi", "carPark": "Gateway-Tsing Yi", "groupID": "75801", "sockets": {"IECQSocket": "6"}, "TeslaWallConnector": "0", "longitude": "114.110502", "latitude": "22.35099", "district": "Tsing Yi", "region": "New Territories", "free": "false", "party": "echarge", "connectServer": "true", "chargerCost": "$25.0 / 1 Hour 60.0"}, {"totalSockets": 143, "vacancyEV": 49, "Others": "0", "image": "http://www.hkev.com.hk/chargerImage?file=76103_p", "address": "CUHK Medical Centre, 9 Chak Cheung Street, Sha Tin", "carPark": "CUHK Medical Centre", "groupID": "76103", "TeslaWallConnector": "0", "longitude": "114.210505", "latitude": "22.412473", "district": "Sha Tin", "sockets": {"IECSocket": "143"}, "region": "New Territories", "free": "false", "party": "echarge", "connectServer": "true", "chargerCost": "$20.0 / 1 Hour 60.0"}, {"totalSockets": 2, "vacancyEV": 0, "Others": "0", "image": "http://www.hkev.com.hk/chargerImage?file=76201_p", "address": "St Paul Hospital, 2 Eastern Hospital Rd, Causeway Bay", "carPark": "St Paul Hospital", "groupID": "76201", "sockets": {"IECQSocket": "2"}, "TeslaWallConnector": "0", "longitude": "114.187498", "latitude": "22.278553", "district": "Causeway Bay", "region": "Hong Kong Island", "free": "false", "party": "echarge", "connectServer": "true", "chargerCost": "$12.0 / 30 Minute(s) 30.0"}, {"totalSockets": 2, "vacancyEV": 0, "Others": "0", "image": "http://www.hkev.com.hk/chargerImage?file=76801_p", "address": "Press Printing Section Outdoor Carpark, The City University of Hong Kong, Kowloon Tong", "carPark": "The City University of Hong Kong", "groupID": "76801", "sockets": {"IECQSocket": "2"}, "TeslaWallConnector": "0", "longitude": "114.17346", "latitude": "22.336599", "district": "Kowloon Tong", "region": "Kowloon", "free": "false", "party": "echarge", "connectServer": "true", "chargerCost": "$12.0 / 1 Hour 60.0"}, {"totalSockets": 1, "vacancyEV": 0, "Others": "0", "image": "http://www.hkev.com.hk/chargerImage?file=76802_p", "address": "Bank of China (HK) Complex Carpark, The City University of Hong Kong, Kowloon Tong", "carPark": "The City University of Hong Kong", "groupID": "76802", "sockets": {"IECQSocket": "1"}, "TeslaWallConnector": "0", "longitude": "114.171741", "latitude": "22.337327", "district": "Kowloon Tong", "region": "Kowloon", "free": "false", "party": "echarge", "connectServer": "true", "chargerCost": "$12.0 / 1 Hour 60.0"}, {"totalSockets": 1, "vacancyEV": 0, "Others": "0", "image": "http://www.hkev.com.hk/chargerImage?file=76803_p", "address": "Lau Ming Wai Academic Building Carpark, The City University of Hong Kong, Kowloon Tong", "carPark": "The City University of Hong Kong", "groupID": "76803", "sockets": {"IECQSocket": "1"}, "TeslaWallConnector": "0", "longitude": "114.172795", "latitude": "22.337757", "district": "Kowloon Tong", "region": "Kowloon", "free": "false", "party": "echarge", "connectServer": "true", "chargerCost": "$12.0 / 1 Hour 60.0"}, {"totalSockets": 2, "vacancyEV": 1, "Others": "0", "image": "http://www.hkev.com.hk/chargerImage?file=77303_p", "address": "Wetland Seasons Park, Wetland Park Road, Tin Shui Wai", "carPark": "Wetland Seasons Park", "groupID": "77303", "sockets": {"IECQSocket": "2"}, "TeslaWallConnector": "0", "longitude": "114.006765512972", "latitude": "22.4665538766613", "district": "Tin Shui Wai", "region": "New Territories", "free": "false", "party": "echarge", "connectServer": "true", "chargerCost": "$20.0 / 1 Hour 60.0"}, {"totalSockets": 5, "vacancyEV": 1, "Others": "0", "image": "http://www.hkev.com.hk/chargerImage?file=77304_p", "address": "Wetland Seasons Park, Wetland Park Road, Tin Shui Wai", "carPark": "Wetland Seasons Park", "groupID": "77304", "sockets": {"IECQSocket": "5"}, "TeslaWallConnector": "0", "longitude": "114.006757690784", "latitude": "22.4665697793717", "district": "Tin Shui Wai", "region": "New Territories", "free": "false", "party": "echarge", "connectServer": "true", "chargerCost": "$20.0 / 1 Hour 60.0"}, {"totalSockets": 2, "vacancyEV": 1, "Others": "0", "image": "http://www.hkev.com.hk/chargerImage?file=77305_p", "address": "Wetland Seasons Park, Wetland Park Road, Tin Shui Wai", "carPark": "Wetland Seasons Park", "groupID": "77305", "sockets": {"IECComSocket": "1", "CdMSocket": "1"}, "TeslaWallConnector": "0", "longitude": "114.006765512972", "latitude": "22.4665538766613", "district": "Tin Shui Wai", "region": "New Territories", "free": "false", "party": "echarge", "connectServer": "true", "chargerCost": "$25.0 / 1 Hour 60.0"}, {"sockets": {"TeslaSuperSocket": "4"}, "totalSockets": 4, "vacancyEV": 1, "Others": "0", "image": "http://www.hkev.com.hk/chargerImage?file=90101_p", "address": "Pacific Place, 88 Queensway, Admiralty", "carPark": "Pacific Place", "groupID": "90101", "TeslaWallConnector": "0", "longitude": "114.164321", "latitude": "22.277208", "district": "Admiralty", "region": "Hong Kong Island", "free": "-", "party": "other", "connectServer": "false", "chargerCost": "Free"}, {"totalSockets": 2, "vacancyEV": 0, "Others": "0", "image": "http://www.hkev.com.hk/chargerImage?file=90102_p", "address": "The Peak Galleria, 118 Peak Road, The Peak", "carPark": "The Peak Galleria", "groupID": "90102", "sockets": {"IECQSocket": "1", "BSSocket": "1"}, "TeslaWallConnector": "2", "longitude": "114.149942", "latitude": "22.270318", "district": "The Peak", "region": "Hong Kong Island", "free": "true", "party": "other", "connectServer": "false", "chargerCost": "Free"}, {"totalSockets": 14, "vacancyEV": 6, "Others": "0", "image": "http://www.hkev.com.hk/chargerImage?file=90103_p", "address": "Wan Chai Tower and Immigration Tower, 1 Harbour Road, Wan Chai", "carPark": "Wanchai Tower and Immigration Tower", "groupID": "90103", "TeslaWallConnector": "0", "longitude": "114.17266", "latitude": "22.280499", "district": "Wan Chai", "sockets": {"IECSocket": "7", "BSSocket": "7"}, "region": "Hong Kong Island", "free": "true", "party": "other", "connectServer": "false", "chargerCost": "Free"}, {"totalSockets": 2, "vacancyEV": 1, "Others": "0", "image": "http://www.hkev.com.hk/chargerImage?file=90104_p", "address": "The Cantrium, 60 Wyndham Street, Central", "carPark": "The Centrium", "groupID": "90104", "TeslaWallConnector": "0", "longitude": "114.154663", "latitude": "22.280713", "district": "Central", "sockets": {"BSSocket": "2"}, "region": "Hong Kong Island", "free": "-", "party": "other", "connectServer": "false", "chargerCost": "Free"}, {"totalSockets": 2, "vacancyEV": 1, "Others": "0", "image": "http://www.hkev.com.hk/chargerImage?file=90105_p", "address": "Citibank Plaza, 3 Garden Road, Admiralty", "carPark": "Citibank Plaza", "groupID": "90105", "TeslaWallConnector": "2", "longitude": "114.160886", "latitude": "22.278558", "district": "Admiralty", "sockets": {"BSSocket": "2"}, "region": "Hong Kong Island", "free": "true", "party": "other", "connectServer": "false", "chargerCost": "Free"}, {"totalSockets": 1, "vacancyEV": 0, "Others": "0", "image": "http://www.hkev.com.hk/chargerImage?file=90106_p", "address": "New World Tower Central, 16-18 Queen's Road, Central", "carPark": "New World Tower", "groupID": "90106", "TeslaWallConnector": "0", "longitude": "114.156948", "latitude": "22.280469", "district": "Central", "sockets": {"BSSocket": "1"}, "region": "Hong Kong Island", "free": "-", "party": "other", "connectServer": "false", "chargerCost": "Free"}, {"totalSockets": 5, "vacancyEV": 0, "Others": "0", "image": "http://www.hkev.com.hk/chargerImage?file=90107_p", "address": "City Plaza, 13 Taikoo Wan Road, Quarry Bay", "carPark": "Cityplaza", "groupID": "90107", "sockets": {"IECComSocket": "1", "IECQSocket": "2", "CdMSocket": "1", "BSSocket": "1"}, "TeslaWallConnector": "0", "longitude": "114.217713", "latitude": "22.286952", "district": "Quarry Bay", "region": "Hong Kong Island", "free": "true", "party": "other", "connectServer": "false", "chargerCost": "Free"}, {"totalSockets": 2, "vacancyEV": 1, "Others": "0", "image": "http://www.hkev.com.hk/chargerImage?file=90108_p", "address": "Oi Tung Estate, 15 Aldrich Bay Road, Quarry Bay", "carPark": "Oi Tung Estate", "groupID": "90108", "sockets": {"IECQSocket": "1", "BSSocket": "1"}, "TeslaWallConnector": "0", "longitude": "114.226911", "latitude": "22.280544", "district": "Quarry Bay", "region": "Hong Kong Island", "free": "true", "party": "other", "connectServer": "false", "chargerCost": "Free"}, {"totalSockets": 6, "vacancyEV": 2, "Others": "0", "image": "http://www.hkev.com.hk/chargerImage?file=90109_p", "address": "Junction of Lau Sin Street and Electric Road (Park Towers), 1 Lau Sin Street, North Point", "carPark": "Tin Hau Car Park", "groupID": "90109", "TeslaWallConnector": "0", "longitude": "114.191535", "latitude": "22.282822", "district": "North Point", "sockets": {"IECSocket": "3", "BSSocket": "3"}, "region": "Hong Kong Island", "free": "true", "party": "other", "connectServer": "false", "chargerCost": "Free"}, {"totalSockets": 2, "vacancyEV": 1, "Others": "0", "image": "http://www.hkev.com.hk/chargerImage?file=90110_p", "address": "148 Electric Road, 148 Electric Road, North Point", "carPark": "148 Electric Road", "groupID": "90110", "TeslaWallConnector": "0", "longitude": "114.191728", "latitude": "22.286662", "district": "North Point", "sockets": {"BSSocket": "2"}, "region": "Hong Kong Island", "free": "-", "party": "other", "connectServer": "false", "chargerCost": "Free"}, {"totalSockets": 1, "vacancyEV": 0, "Others": "0", "image": "http://www.hkev.com.hk/chargerImage?file=90111_p", "address": "Cornell Centre, 50 Wing Tai Road, Chai Wan", "carPark": "Cornell Centre", "groupID": "90111", "TeslaWallConnector": "0", "longitude": "114.242913", "latitude": "22.267558", "district": "Chai Wan", "sockets": {"BSSocket": "1"}, "region": "Hong Kong Island", "free": "-", "party": "other", "connectServer": "false", "chargerCost": "Free"}, {"totalSockets": 2, "vacancyEV": 0, "Others": "0", "image": "http://www.hkev.com.hk/chargerImage?file=90112_p", "address": "Island Resort(Mall), 28 Siu Sai Wan Road, Chai Wan", "carPark": "Island Resort Mall", "groupID": "90112", "TeslaWallConnector": "0", "longitude": "114.250729", "latitude": "22.266327", "district": "Chai Wan", "sockets": {"BSSocket": "2"}, "region": "Hong Kong Island", "free": "true", "party": "other", "connectServer": "false", "chargerCost": "Free"}, {"totalSockets": -1, "vacancyEV": -1, "Others": "0", "image": "http://www.hkev.com.hk/chargerImage?file=90113_p", "address": "Kerry Centre, 683 King's Road, Quarry Bay", "carPark": "Kerry Centre", "groupID": "90113", "TeslaWallConnector": "0", "longitude": "114.20957", "latitude": "22.290322", "district": "Quarry Bay", "region": "Hong Kong Island", "free": "-", "party": "other", "connectServer": "false", "chargerCost": "Free"}, {"totalSockets": 1, "vacancyEV": 0, "Others": "0", "image": "http://www.hkev.com.hk/chargerImage?file=90114_p", "address": "Marina House, 68 Hing Man Street, Sai Wan Ho", "carPark": "Marina House", "groupID": "90114", "TeslaWallConnector": "0", "longitude": "114.224451", "latitude": "22.280802", "district": "Sai Wan Ho", "sockets": {"BSSocket": "1"}, "region": "Hong Kong Island", "free": "-", "party": "other", "connectServer": "false", "chargerCost": "Free"}, {"totalSockets": 2, "vacancyEV": 0, "Others": "0", "image": "http://www.hkev.com.hk/chargerImage?file=90115_p", "address": "Pacific Palisades, 190 Tin Hau Temple Road, North Point", "carPark": "Pacific Palisades (Private Use Only)", "groupID": "90115", "TeslaWallConnector": "0", "longitude": "114.203527", "latitude": "22.287987", "district": "North Point", "sockets": {"BSSocket": "2"}, "region": "Hong Kong Island", "free": "-", "party": "other", "connectServer": "false", "chargerCost": "Free"}, {"totalSockets": 2, "vacancyEV": 0, "Others": "0", "image": "http://www.hkev.com.hk/chargerImage?file=90116_p", "address": "Sky Horizon, 35-37 Cloud View Road, North Point", "carPark": "Sky Horizon (Private Use Only)", "groupID": "90116", "TeslaWallConnector": "0", "longitude": "114.196454", "latitude": "22.286178", "district": "North Point", "sockets": {"BSSocket": "2"}, "region": "Hong Kong Island", "free": "-", "party": "other", "connectServer": "false", "chargerCost": "Free"}, {"totalSockets": 2, "vacancyEV": 0, "Others": "0", "image": "http://www.hkev.com.hk/chargerImage?file=90118_p", "address": "Oxford House, Taikoo Place, 22 Westland Road, Quarry Bay", "carPark": "Oxford House", "groupID": "90118", "TeslaWallConnector": "0", "longitude": "114.213384", "latitude": "22.287173", "district": "Quarry Bay", "sockets": {"BSSocket": "2"}, "region": "Hong Kong Island", "free": "-", "party": "other", "connectServer": "false", "chargerCost": "Free"}, {"totalSockets": 2, "vacancyEV": 0, "Others": "0", "image": "http://www.hkev.com.hk/chargerImage?file=90119_p", "address": "Dorest House, Taikoo Place, 28 Tong Chong Street, Quarry Bay", "carPark": "Dorset House", "groupID": "90119", "TeslaWallConnector": "0", "longitude": "114.211713", "latitude": "22.287198", "district": "Quarry Bay", "sockets": {"BSSocket": "2"}, "region": "Hong Kong Island", "free": "-", "party": "other", "connectServer": "false", "chargerCost": "Free"}, {"totalSockets": 1, "vacancyEV": 0, "Others": "0", "image": "http://www.hkev.com.hk/chargerImage?file=90120_p", "address": "One Island East, 18 Westlands Road, Quarry Bay", "carPark": "One Island East", "groupID": "90120", "TeslaWallConnector": "0", "longitude": "114.213148", "latitude": "22.286277", "district": "Quarry Bay", "sockets": {"BSSocket": "1"}, "region": "Hong Kong Island", "free": "-", "party": "other", "connectServer": "false", "chargerCost": "Free"}, {"sockets": {"TeslaSuperSocket": "6", "IECQSocket": "2", "BSSocket": "2"}, "totalSockets": 10, "vacancyEV": 4, "Others": "0", "image": "http://www.hkev.com.hk/chargerImage?file=90121_p", "address": "No.1 Carpark, Cyberport Tower 2, 100 Cyberport Road, Pok Fu Lam", "carPark": "Cyberport Tower 2", "groupID": "90121", "TeslaWallConnector": "0", "longitude": "114.130582", "latitude": "22.262457", "district": "Pok Fu Lam", "region": "Hong Kong Island", "free": "true", "party": "other", "connectServer": "false", "chargerCost": "Free"}, {"totalSockets": 1, "vacancyEV": 0, "Others": "0", "image": "http://www.hkev.com.hk/chargerImage?file=90122_p", "address": "Waterfront South, 1 Yue Wok Street, Aberdeen", "carPark": "Waterfront South (Private Use Only)", "groupID": "90122", "TeslaWallConnector": "0", "longitude": "114.147786", "latitude": "22.249303", "district": "Aberdeen", "sockets": {"BSSocket": "1"}, "region": "Hong Kong Island", "free": "-", "party": "other", "connectServer": "false", "chargerCost": "Free"}, {"totalSockets": 20, "vacancyEV": 0, "Others": "0", "image": "http://www.hkev.com.hk/chargerImage?file=90123_p", "address": "Broadwood Twelve, 12 Broadwood Road, Happy Valley", "carPark": "Broadwood Twelve (Private Use Only)", "groupID": "90123", "TeslaWallConnector": "0", "longitude": "114.186222", "latitude": "22.271921", "district": "Happy Valley", "sockets": {"BSSocket": "20"}, "region": "Hong Kong Island", "free": "-", "party": "other", "connectServer": "false", "chargerCost": "Free"}, {"totalSockets": 2, "vacancyEV": 1, "Others": "0", "image": "http://www.hkev.com.hk/chargerImage?file=90124_p", "address": "Great Eagle Centre, 23 Harbour Road, Wan Chai", "carPark": "Great Eagle Centre", "groupID": "90124", "TeslaWallConnector": "0", "longitude": "114.175099", "latitude": "22.280924", "district": "Wan Chai", "sockets": {"BSSocket": "2"}, "region": "Hong Kong Island", "free": "-", "party": "other", "connectServer": "false", "chargerCost": "Free"}, {"totalSockets": 2, "vacancyEV": 0, "Others": "0", "image": "http://www.hkev.com.hk/chargerImage?file=90125_p", "address": "HK Convention and Exhibition Centre, Expo Drive Central Road, Wan Chai", "carPark": "Convention Plaza (Expo Drive Central Road) Carpark", "groupID": "90125", "TeslaWallConnector": "0", "longitude": "114.173701", "latitude": "22.282604", "district": "Wan Chai", "sockets": {"BSSocket": "2"}, "region": "Hong Kong Island", "free": "-", "party": "other", "connectServer": "false", "chargerCost": "Free"}, {"totalSockets": 3, "vacancyEV": 1, "Others": "0", "image": "http://www.hkev.com.hk/chargerImage?file=90126_p", "address": "HK Convention and Exhibition Centre, Harbour Road, Wan Chai", "carPark": "Convention Plaza (Harbour Road) Carpark", "groupID": "90126", "TeslaWallConnector": "3", "longitude": "114.171469", "latitude": "22.280464", "district": "Wan Chai", "sockets": {"BSSocket": "3"}, "region": "Hong Kong Island", "free": "-", "party": "other", "connectServer": "false", "chargerCost": "Free"}, {"totalSockets": 2, "vacancyEV": 1, "Others": "0", "image": "http://www.hkev.com.hk/chargerImage?file=90127_p", "address": "Olympic House, 1 Stadium Path, Happy Valley", "carPark": "Olympic House", "groupID": "90127", "TeslaWallConnector": "0", "longitude": "114.187504", "latitude": "22.273706", "district": "Happy Valley", "sockets": {"BSSocket": "2"}, "region": "Hong Kong Island", "free": "-", "party": "other", "connectServer": "false", "chargerCost": "Free"}, {"totalSockets": 2, "vacancyEV": 0, "Others": "0", "image": "http://www.hkev.com.hk/chargerImage?file=90128_p", "address": "Sino Plaza, 255-257 Gloucester Road, Causeway Bay", "carPark": "Sino Plaza", "groupID": "90128", "TeslaWallConnector": "0", "longitude": "114.182418", "latitude": "22.281291", "district": "Causeway Bay", "sockets": {"BSSocket": "2"}, "region": "Hong Kong Island", "free": "-", "party": "other", "connectServer": "false", "chargerCost": "Free"}, {"totalSockets": 18, "vacancyEV": 6, "Others": "0", "image": "http://www.hkev.com.hk/chargerImage?file=90129_p", "address": "Times Square, 1 Matheson street, Causeway Bay", "carPark": "Times Square", "groupID": "90129", "TeslaWallConnector": "0", "longitude": "114.181702", "latitude": "22.278131", "district": "Causeway Bay", "sockets": {"IECSocket": "2", "BSSocket": "16"}, "region": "Hong Kong Island", "free": "-", "party": "other", "connectServer": "false", "chargerCost": "Free"}, {"totalSockets": 9, "vacancyEV": 1, "Others": "0", "image": "http://www.hkev.com.hk/chargerImage?file=90130_p", "address": "Wu Chung House, 213 Queen's Road East, Wan Chai", "carPark": "Wu Chung House", "groupID": "90130", "TeslaWallConnector": "0", "longitude": "114.172803", "latitude": "22.274284", "district": "Wan Chai", "sockets": {"BSSocket": "9"}, "region": "Hong Kong Island", "free": "-", "party": "other", "connectServer": "false", "chargerCost": "Free"}, {"totalSockets": -1, "vacancyEV": -1, "Others": "0", "image": "http://www.hkev.com.hk/chargerImage?file=90131_p", "address": "Queensway Government Offices, 66 Queensway, Admiralty", "carPark": "Queensway Government Offices", "groupID": "90131", "TeslaWallConnector": "0", "longitude": "114.164187", "latitude": "22.277841", "district": "Admiralty", "region": "Hong Kong Island", "free": "true", "party": "other", "connectServer": "false", "chargerCost": "Free"}, {"totalSockets": 2, "vacancyEV": 0, "Others": "0", "image": "http://www.hkev.com.hk/chargerImage?file=90134_p", "address": "Rumsey Street Multi-storey Car Park, 2 Rumsey Street, Sheung Wan", "carPark": "Rumsey Street Car Park", "groupID": "90134", "TeslaWallConnector": "0", "longitude": "114.153426", "latitude": "22.287461", "sockets": {"GBSocket": "2"}, "district": "Sheung Wan", "region": "Hong Kong Island", "free": "true", "party": "other", "connectServer": "false", "chargerCost": "Free"}, {"totalSockets": 24, "vacancyEV": 7, "Others": "0", "image": "http://www.hkev.com.hk/chargerImage?file=90135_p", "address": "Opus Hong Kong, 53 Stubbs Road, Mid-Levels", "carPark": "Opus Hong Kong (Private Use Only)", "groupID": "90135", "TeslaWallConnector": "0", "longitude": "114.174192", "latitude": "22.269442", "district": "Mid-Levels", "sockets": {"BSSocket": "24"}, "region": "Hong Kong Island", "free": "-", "party": "other", "connectServer": "false", "chargerCost": "Free"}, {"totalSockets": 2, "vacancyEV": 0, "Others": "0", "image": "http://www.hkev.com.hk/chargerImage?file=90136_p", "address": "Shau Kei Wan Car Park, Mong Lung Street, Shau Kei Wan", "carPark": "Shau Kei Wan Car Park", "groupID": "90136", "TeslaWallConnector": "0", "longitude": "114.229528", "latitude": "22.278649", "sockets": {"GBSocket": "2"}, "district": "Shau Kei Wan", "region": "Hong Kong Island", "free": "true", "party": "other", "connectServer": "false", "chargerCost": "Free"}, {"totalSockets": -1, "vacancyEV": -1, "Others": "0", "image": "http://www.hkev.com.hk/chargerImage?file=90137_p", "address": "North Point Government Offices, 333 Java Road, North Point", "carPark": "North Point Government Offices", "groupID": "90137", "TeslaWallConnector": "0", "longitude": "114.208184", "latitude": "22.292295", "district": "North Point", "region": "Hong Kong Island", "free": "true", "party": "other", "connectServer": "false", "chargerCost": "Free"}, {"totalSockets": 1, "vacancyEV": 0, "Others": "0", "image": "http://www.hkev.com.hk/chargerImage?file=90138_p", "address": "Trend Centre, 29-31 Cheung Lee Street, Chai Wan", "carPark": "Trend Centre", "groupID": "90138", "TeslaWallConnector": "0", "longitude": "114.235392", "latitude": "22.265326", "district": "Chai Wan", "sockets": {"BSSocket": "1"}, "region": "Hong Kong Island", "free": "-", "party": "other", "connectServer": "false", "chargerCost": "Free"}, {"totalSockets": -1, "vacancyEV": -1, "Others": "0", "image": "http://www.hkev.com.hk/chargerImage?file=90139_p", "address": "AIA Tower, 183 Electric Road, North Point", "carPark": "AIA Tower", "groupID": "90139", "TeslaWallConnector": "0", "longitude": "114.19231", "latitude": "22.288426", "district": "North Point", "region": "Hong Kong Island", "free": "-", "party": "other", "connectServer": "false", "chargerCost": "Free"}, {"totalSockets": 2, "vacancyEV": 1, "Others": "0", "image": "http://www.hkev.com.hk/chargerImage?file=90140_p", "address": "Bayview Park, 3 Hong Man Street, Chai Wan", "carPark": "Bayview Park (Private Use Only)", "groupID": "90140", "TeslaWallConnector": "0", "longitude": "114.234231", "latitude": "22.265659", "district": "Chai Wan", "sockets": {"BSSocket": "2"}, "region": "Hong Kong Island", "free": "-", "party": "other", "connectServer": "false", "chargerCost": "Free"}, {"totalSockets": 1, "vacancyEV": 0, "Others": "0", "image": "http://www.hkev.com.hk/chargerImage?file=90141_p", "address": "Lai Tak Tsuen, Lai Tak Tsuen Road, Causeway Bay", "carPark": "Lai Tak Tsuen", "groupID": "90141", "TeslaWallConnector": "0", "longitude": "114.193965", "latitude": "22.278429", "district": "Causeway Bay", "sockets": {"BSSocket": "1"}, "region": "Hong Kong Island", "free": "true", "party": "other", "connectServer": "false", "chargerCost": "Free"}, {"totalSockets": 1, "vacancyEV": 0, "Others": "0", "image": "http://www.hkev.com.hk/chargerImage?file=90142_p", "address": "Le Meridien Cyberport, 100 Cyberport Road, Pok Fu Lam", "sockets": {"TeslaRoadsterSocket": "1"}, "carPark": "Le Meridien Cyberport", "groupID": "90142", "TeslaWallConnector": "0", "longitude": "114.129396", "latitude": "22.262124", "district": "Pok Fu Lam", "region": "Hong Kong Island", "free": "-", "party": "other", "connectServer": "false", "chargerCost": "Free"}, {"sockets": {"TeslaSuperSocket": "10", "TeslaRoadsterSocket": "2"}, "totalSockets": 12, "vacancyEV": 4, "Others": "0", "image": "http://www.hkev.com.hk/chargerImage?file=90143_p", "address": "Hopewell Centre, Queen's Road East, Wan Chai", "carPark": "Hopewell Centre", "groupID": "90143", "TeslaWallConnector": "2", "longitude": "114.171056", "latitude": "22.274421", "district": "Wan Chai", "region": "Hong Kong Island", "free": "-", "party": "other", "connectServer": "false", "chargerCost": "Free"}, {"sockets": {"TeslaSuperSocket": "2"}, "totalSockets": 2, "vacancyEV": 1, "Others": "0", "image": "http://www.hkev.com.hk/chargerImage?file=90144_p", "address": "Lee Gardens One, 33 Hysan Avenue, Causeway Bay", "carPark": "Lee Garden 1", "groupID": "90144", "TeslaWallConnector": "0", "longitude": "114.184267", "latitude": "22.27862", "district": "Causeway Bay", "region": "Hong Kong Island", "free": "-", "party": "other", "connectServer": "false", "chargerCost": "Free"}, {"sockets": {"TeslaSuperSocket": "4"}, "totalSockets": 4, "vacancyEV": 2, "Others": "0", "image": "http://www.hkev.com.hk/chargerImage?file=90145_p", "address": "The Pulse, 28 Beach Road, Repulse Bay", "carPark": "The Pulse", "groupID": "90145", "TeslaWallConnector": "6", "longitude": "114.198685", "latitude": "22.235816", "district": "Repulse Bay", "region": "Hong Kong Island", "free": "-", "party": "other", "connectServer": "false", "chargerCost": "Free"}, {"totalSockets": -1, "vacancyEV": -1, "Others": "0", "image": "http://www.hkev.com.hk/chargerImage?file=90146_p", "address": "L'hotel Island South, Tong Bin Lane, Aberdeen", "carPark": "L'hotel Island South", "groupID": "90146", "TeslaWallConnector": "2", "longitude": "114.168021", "latitude": "22.250009", "district": "Aberdeen", "region": "Hong Kong Island", "free": "-", "party": "other", "connectServer": "false", "chargerCost": "Free"}, {"totalSockets": -1, "vacancyEV": -1, "Others": "0", "image": "http://www.hkev.com.hk/chargerImage?file=90147_p", "address": "Sun Hung Kai Centre, 30 harbour road , wan chai , hong kong, Wan Chai", "carPark": "Sun Hung Kai Centre", "groupID": "90147", "TeslaWallConnector": "1", "longitude": "114.176757", "latitude": "22.280906", "district": "Wan Chai", "region": "Hong Kong Island", "free": "-", "party": "other", "connectServer": "false", "chargerCost": "Free"}, {"totalSockets": -1, "vacancyEV": -1, "Others": "0", "image": "http://www.hkev.com.hk/chargerImage?file=90148_p", "address": "Regal Hong Kong Hotel, 88 Yee Wo St, Causeway Bay", "carPark": "Regal Hong Kong Hotel", "groupID": "90148", "TeslaWallConnector": "1", "longitude": "114.186749", "latitude": "22.278961", "district": "Causeway Bay", "region": "Hong Kong Island", "free": "-", "party": "other", "connectServer": "false", "chargerCost": "Free"}, {"totalSockets": -1, "vacancyEV": -1, "Others": "0", "image": "http://www.hkev.com.hk/chargerImage?file=90149_p", "address": "Lodgewood, 28 Tai Wo St, Wan Chai", "carPark": "Lodgewood", "groupID": "90149", "TeslaWallConnector": "1", "longitude": "114.173343", "latitude": "22.275081", "district": "Wan Chai", "region": "Hong Kong Island", "free": "-", "party": "other", "connectServer": "false", "chargerCost": "Free"}, {"totalSockets": -1, "vacancyEV": -1, "Others": "0", "image": "http://www.hkev.com.hk/chargerImage?file=90150_p", "address": "Harmony Place, 333 Shau Kei Wan Rd, Shau Kei Wan", "carPark": "Harmony Place", "groupID": "90150", "TeslaWallConnector": "0", "longitude": "114.227244", "latitude": "22.278133", "district": "Shau Kei Wan", "region": "Hong Kong Island", "free": "-", "party": "other", "connectServer": "false", "chargerCost": "Free"}, {"totalSockets": -1, "vacancyEV": -1, "Others": "0", "image": "http://www.hkev.com.hk/chargerImage?file=90151_p", "address": "Shui On Centre, 6-8 Harbour Road, Wan Chai", "carPark": "Shui On Centre", "groupID": "90151", "TeslaWallConnector": "1", "longitude": "114.171294", "latitude": "22.280129", "district": "Wan Chai", "region": "Hong Kong Island", "free": "-", "party": "other", "connectServer": "false", "chargerCost": "Free"}, {"totalSockets": 5, "vacancyEV": 1, "Others": "0", "image": "http://www.hkev.com.hk/chargerImage?file=90153_p", "address": "Hing Wah Plaza, 11 Wan Tsui Rd, Chai Wan", "carPark": "Hing Wah Plaza", "groupID": "90153", "sockets": {"IECComSocket": "1", "IECQSocket": "1", "CdMSocket": "1", "GBSocket": "2"}, "TeslaWallConnector": "0", "longitude": "114.236192", "latitude": "22.262913", "district": "Chai Wan", "region": "Hong Kong Island", "free": "-", "party": "other", "connectServer": "false", "chargerCost": "Free"}, {"totalSockets": -1, "vacancyEV": -1, "Others": "0", "image": "http://www.hkev.com.hk/chargerImage?file=90154_p", "address": "Mira Moon Hotel, 388 Jaffe Road, Causeway Bay", "carPark": "Mira Moon Hotel", "groupID": "90154", "TeslaWallConnector": "1", "longitude": "114.17963", "latitude": "22.279897", "district": "Causeway Bay", "region": "Hong Kong Island", "free": "-", "party": "other", "connectServer": "false", "chargerCost": "Free"}, {"totalSockets": -1, "vacancyEV": -1, "Others": "0", "image": "http://www.hkev.com.hk/chargerImage?file=90155_p", "address": "Kwan Yick Phase 3, 273 Des Voeux Rd W, Sai Ying Pun", "carPark": "Kwan Yick Phase 3", "groupID": "90155", "TeslaWallConnector": "3", "longitude": "114.140662", "latitude": "22.288449", "district": "Sai Ying Pun", "region": "Hong Kong Island", "free": "true", "party": "other", "connectServer": "false", "chargerCost": "Free"}, {"totalSockets": -1, "vacancyEV": -1, "Others": "0", "image": "http://www.hkev.com.hk/chargerImage?file=90156_p", "address": "Wing On Centre, 209-211 Des Voeux Rd Central, Sheung Wan", "carPark": "Wing On Centre", "groupID": "90156", "TeslaWallConnector": "2", "longitude": "114.152762", "latitude": "22.28685", "district": "Sheung Wan", "region": "Hong Kong Island", "free": "true", "party": "other", "connectServer": "false", "chargerCost": "Free"}, {"totalSockets": -1, "vacancyEV": -1, "Others": "0", "image": "http://www.hkev.com.hk/chargerImage?file=90157_p", "address": "CITIC Tower, 1 Tim Mei Avenue, Wan Chai", "carPark": "CITIC Tower", "groupID": "90157", "TeslaWallConnector": "3", "longitude": "114.166426", "latitude": "22.280568", "district": "Wan Chai", "region": "Hong Kong Island", "free": "true", "party": "other", "connectServer": "false", "chargerCost": "Free"}, {"totalSockets": -1, "vacancyEV": -1, "Others": "0", "image": "http://www.hkev.com.hk/chargerImage?file=90158_p", "address": "Minibox Tower, 18 Lee Chung St, Chai Wan", "carPark": "Minibox Tower", "groupID": "90158", "TeslaWallConnector": "2", "longitude": "114.237187", "latitude": "22.265778", "district": "Chai Wan", "region": "Hong Kong Island", "free": "true", "party": "other", "connectServer": "false", "chargerCost": "Free"}, {"totalSockets": -1, "vacancyEV": -1, "Others": "0", "image": "http://www.hkev.com.hk/chargerImage?file=90159_p", "address": "Sunview Industrial Building, 3 On Yip St, Chai Wan", "carPark": "Sunview Industrial Building", "groupID": "90159", "TeslaWallConnector": "1", "longitude": "114.245844", "latitude": "22.266339", "district": "Chai Wan", "region": "Hong Kong Island", "free": "true", "party": "other", "connectServer": "false", "chargerCost": "Free"}, {"sockets": {"TeslaSuperSocket": "4"}, "totalSockets": 4, "vacancyEV": 1, "Others": "0", "image": "http://www.hkev.com.hk/chargerImage?file=90160_p", "address": "Lincoln House, 979 King's Road, Quarry Bay", "carPark": "Lincoln House", "groupID": "90160", "TeslaWallConnector": "0", "longitude": "114.212317", "latitude": "22.28769", "district": "Quarry Bay", "region": "Hong Kong Island", "free": "true", "party": "other", "connectServer": "false", "chargerCost": "Free"}, {"totalSockets": 2, "vacancyEV": 1, "Others": "0", "image": "http://www.hkev.com.hk/chargerImage?file=90161_p", "address": "One Island South, 2 Heung Yip Rd, Aberdeen", "carPark": "One Island South", "groupID": "90161", "TeslaWallConnector": "0", "longitude": "114.168931", "latitude": "22.24866", "district": "Aberdeen", "sockets": {"BSSocket": "2"}, "region": "Hong Kong Island", "free": "true", "party": "other", "connectServer": "false", "chargerCost": "Free"}, {"totalSockets": 1, "vacancyEV": 0, "Others": "0", "image": "http://www.hkev.com.hk/chargerImage?file=90162_p", "address": "Ocean Park Hong Kong, 180 Wong Chuk Hang Rd, Wong Chuk Hang", "carPark": "Ocean Park Hong Kong", "groupID": "90162", "TeslaWallConnector": "0", "longitude": "114.174858", "latitude": "22.248272", "district": "Wong Chuk Hang", "sockets": {"IECSocket": "1"}, "region": "Hong Kong Island", "free": "true", "party": "other", "connectServer": "false", "chargerCost": "Free"}, {"totalSockets": -1, "vacancyEV": -1, "Others": "0", "image": "http://www.hkev.com.hk/chargerImage?file=90163_p", "address": "Central Plaza, 18 Harbour Rd, Wan Chai", "carPark": "Central Plaza", "groupID": "90163", "TeslaWallConnector": "3", "longitude": "114.173707", "latitude": "22.27991", "district": "Wan Chai", "region": "Hong Kong Island", "free": "true", "party": "other", "connectServer": "false", "chargerCost": "Free"}, {"totalSockets": 1, "vacancyEV": 0, "Others": "0", "image": "http://www.hkev.com.hk/chargerImage?file=90164_p", "address": "Harbour Centre, 25 Harbour Rd, Wan Chai", "carPark": "Harbour Centre", "groupID": "90164", "TeslaWallConnector": "0", "longitude": "114.175754", "latitude": "22.281067", "district": "Wan Chai", "sockets": {"BSSocket": "1"}, "region": "Hong Kong Island", "free": "true", "party": "other", "connectServer": "false", "chargerCost": "Free"}, {"totalSockets": -1, "vacancyEV": -1, "Others": "0", "image": "http://www.hkev.com.hk/chargerImage?file=90165_p", "address": "Upper Baguio Villa, 550 Victoria Rd, Pok Fu Lam", "carPark": "Upper Baguio Villa", "groupID": "90165", "TeslaWallConnector": "2", "longitude": "114.133437", "latitude": "22.261988", "district": "Pok Fu Lam", "region": "Hong Kong Island", "free": "true", "party": "other", "connectServer": "false", "chargerCost": "Free"}, {"totalSockets": 3, "vacancyEV": 1, "Others": "0", "image": "http://www.hkev.com.hk/chargerImage?file=90166_p", "address": "The Composite Building, The University of Hong Kong, Pok Fu Lam", "carPark": "The University of Hong Kong", "groupID": "90166", "sockets": {"IECComSocket": "1", "IECQSocket": "1", "CdMSocket": "1"}, "TeslaWallConnector": "0", "longitude": "114.136472", "latitude": "22.283087", "district": "Pok Fu Lam", "region": "Hong Kong Island", "free": "true", "party": "other", "connectServer": "false", "chargerCost": "Free"}, {"totalSockets": 3, "vacancyEV": 1, "Others": "0", "image": "http://www.hkev.com.hk/chargerImage?file=90167_p", "address": "Hing Wah (I) Estate, Wan Tsui Road, Chai Wan", "carPark": "Hing Wah (I) Estate", "groupID": "90167", "sockets": {"IECComSocket": "1", "CdMSocket": "1", "IECSocket": "1"}, "TeslaWallConnector": "0", "longitude": "114.235069", "latitude": "22.263353", "district": "Chai Wan", "region": "Hong Kong Island", "free": "true", "party": "other", "connectServer": "false", "chargerCost": "Free"}, {"totalSockets": -1, "vacancyEV": -1, "Others": "0", "image": "http://www.hkev.com.hk/chargerImage?file=90168_p", "address": "Kornhill Plaza (South), 1-2 Kornhill Road, Quarry Bay", "carPark": "Kornhill Plaza (South)", "groupID": "90168", "TeslaWallConnector": "2", "longitude": "114.217008", "latitude": "22.284172", "district": "Quarry Bay", "region": "Hong Kong Island", "free": "-", "party": "other", "connectServer": "false", "chargerCost": "Free"}, {"totalSockets": -1, "vacancyEV": -1, "Others": "0", "image": "http://www.hkev.com.hk/chargerImage?file=90169_p", "address": "Fitfort, 560 King's Road, North Point", "carPark": "Fitfort", "groupID": "90169", "TeslaWallConnector": "12", "longitude": "114.203288", "latitude": "22.291607", "district": "North Point", "region": "Hong Kong Island", "free": "true", "party": "other", "connectServer": "false", "chargerCost": "Free"}, {"totalSockets": 19, "vacancyEV": 7, "Others": "0", "image": "http://www.hkev.com.hk/chargerImage?file=90170_p", "address": "Harmony Place, Shau Kei Wan Road, Shau Kei Wan", "carPark": "Harmony Place", "groupID": "90170", "TeslaWallConnector": "0", "longitude": "114.227183", "latitude": "22.278028", "district": "Shau Kei Wan", "sockets": {"BSSocket": "19"}, "region": "Hong Kong Island", "free": "-", "party": "other", "connectServer": "false", "chargerCost": "Free"}, {"totalSockets": 3, "vacancyEV": 1, "Others": "0", "image": "http://www.hkev.com.hk/chargerImage?file=90201_p", "address": "Harbour Place, 8 Oi King Street, Hung Hom", "carPark": "Harbour Place (Private Use Only)", "groupID": "90201", "TeslaWallConnector": "0", "longitude": "114.186466", "latitude": "22.303783", "district": "Hung Hom", "sockets": {"BSSocket": "3"}, "region": "Kowloon", "free": "-", "party": "other", "connectServer": "false", "chargerCost": "Free"}, {"totalSockets": 1, "vacancyEV": 0, "Others": "0", "image": "http://www.hkev.com.hk/chargerImage?file=90202_p", "address": "Sunshine Plaza, 23 Sung Kit Street, Hung Hom", "carPark": "Sunshine Plaza", "groupID": "90202", "TeslaWallConnector": "0", "longitude": "114.189067", "latitude": "22.31183", "district": "Hung Hom", "sockets": {"BSSocket": "1"}, "region": "Kowloon", "free": "-", "party": "other", "connectServer": "false", "chargerCost": "Free"}, {"totalSockets": 2, "vacancyEV": 0, "Others": "0", "image": "http://www.hkev.com.hk/chargerImage?file=90203_p", "address": "Kwun Tong Plaza, 68 Hoi Yuen Road, Kwun Tong", "carPark": "Kwun Tong Plaza", "groupID": "90203", "TeslaWallConnector": "0", "longitude": "114.226248", "latitude": "22.311279", "district": "Kwun Tong", "sockets": {"IECSocket": "1", "BSSocket": "1"}, "region": "Kowloon", "free": "true", "party": "other", "connectServer": "false", "chargerCost": "Free"}, {"totalSockets": 9, "vacancyEV": 0, "Others": "0", "image": "http://www.hkev.com.hk/chargerImage?file=90204_p", "address": "MegaBox, 38 Wang Chiu Road, Kowloon Bay", "carPark": "Mega Box", "groupID": "90204", "TeslaWallConnector": "0", "longitude": "114.208481", "latitude": "22.319785", "district": "Kowloon Bay", "sockets": {"IECSocket": "6", "BSSocket": "3"}, "region": "Kowloon", "free": "true", "party": "other", "connectServer": "false", "chargerCost": "Free"}, {"totalSockets": 3, "vacancyEV": 0, "Others": "0", "image": "http://www.hkev.com.hk/chargerImage?file=90205_p", "address": "Exchange Tower, 33 Wang Chiu Road, Kowloon Bay", "carPark": "Exchange Tower", "groupID": "90205", "TeslaWallConnector": "0", "longitude": "114.209393", "latitude": "22.321078", "district": "Kowloon Bay", "sockets": {"BSSocket": "3"}, "region": "Kowloon", "free": "-", "party": "other", "connectServer": "false", "chargerCost": "Free"}, {"totalSockets": 1, "vacancyEV": 0, "Others": "0", "image": "http://www.hkev.com.hk/chargerImage?file=90206_p", "address": "Fullerton Centre, 19 Hung To Road, Kwun Tong", "carPark": "Fullerton Centre", "groupID": "90206", "TeslaWallConnector": "0", "longitude": "114.219553", "latitude": "22.313473", "district": "Kwun Tong", "sockets": {"BSSocket": "1"}, "region": "Kowloon", "free": "-", "party": "other", "connectServer": "false", "chargerCost": "Free"}, {"totalSockets": 1, "vacancyEV": 1, "Others": "0", "image": "http://www.hkev.com.hk/chargerImage?file=90207_p", "address": "Futura Plaza, 111-113 How Ming Street, Kwun Tong", "carPark": "Futura Plaza", "groupID": "90207", "TeslaWallConnector": "0", "longitude": "114.2244", "latitude": "22.311897", "district": "Kwun Tong", "sockets": {"BSSocket": "1"}, "region": "Kowloon", "free": "-", "party": "other", "connectServer": "false", "chargerCost": "Free"}, {"totalSockets": 8, "vacancyEV": 2, "Others": "0", "image": "http://www.hkev.com.hk/chargerImage?file=90208_p", "address": "Miramar Shopping Centre, 132 Nathan Road, Tsim Sha Tsui", "carPark": "Miramar Shopping Centre", "groupID": "90208", "TeslaWallConnector": "2", "longitude": "114.172542", "latitude": "22.300842", "district": "Tsim Sha Tsui", "sockets": {"IECSocket": "4", "BSSocket": "4"}, "region": "Kowloon", "free": "true", "party": "other", "connectServer": "false", "chargerCost": "Free"}, {"totalSockets": 2, "vacancyEV": 0, "Others": "0", "image": "http://www.hkev.com.hk/chargerImage?file=90209_p", "address": "Kwun Tong Harbour Plaza, 182 Wai Yip Street, Kwun Tong", "carPark": "Kwun Tong Harbour Plaza", "groupID": "90209", "TeslaWallConnector": "0", "longitude": "114.221691", "latitude": "22.30893", "district": "Kwun Tong", "sockets": {"BSSocket": "2"}, "region": "Kowloon", "free": "-", "party": "other", "connectServer": "false", "chargerCost": "Free"}, {"totalSockets": 1, "vacancyEV": 0, "Others": "0", "image": "http://www.hkev.com.hk/chargerImage?file=90210_p", "address": "Metro Centre, 32 Lam Hing Street, Kowloon Bay", "carPark": "Metro Centre", "groupID": "90210", "TeslaWallConnector": "0", "longitude": "114.210455", "latitude": "22.324274", "district": "Kowloon Bay", "sockets": {"BSSocket": "1"}, "region": "Kowloon", "free": "-", "party": "other", "connectServer": "false", "chargerCost": "Free"}, {"totalSockets": 2, "vacancyEV": 1, "Others": "0", "image": "http://www.hkev.com.hk/chargerImage?file=90211_p", "address": "Metro Centre II, 21 Lam Hing Street, Kowloon Bay", "carPark": "Metro Centre II", "groupID": "90211", "TeslaWallConnector": "0", "longitude": "114.210957", "latitude": "22.325021", "district": "Kowloon Bay", "sockets": {"BSSocket": "2"}, "region": "Kowloon", "free": "-", "party": "other", "connectServer": "false", "chargerCost": "Free"}, {"totalSockets": 1, "vacancyEV": 0, "Others": "0", "image": "http://www.hkev.com.hk/chargerImage?file=90212_p", "address": "Pan Asia Centre, 137 Wai Yip Street, Kwun Tong", "carPark": "Pan Asia Centre", "groupID": "90212", "TeslaWallConnector": "0", "longitude": "114.218014", "latitude": "22.313634", "district": "Kwun Tong", "sockets": {"BSSocket": "1"}, "region": "Kowloon", "free": "-", "party": "other", "connectServer": "false", "chargerCost": "Free"}, {"totalSockets": 1, "vacancyEV": 0, "Others": "0", "image": "http://www.hkev.com.hk/chargerImage?file=90213_p", "address": "Remington Centre, 21 Hung To Road, Kwun Tong", "carPark": "Remington Centre", "groupID": "90213", "TeslaWallConnector": "0", "longitude": "114.219784", "latitude": "22.313252", "district": "Kwun Tong", "sockets": {"BSSocket": "1"}, "region": "Kowloon", "free": "-", "party": "other", "connectServer": "false", "chargerCost": "Free"}, {"totalSockets": 1, "vacancyEV": 0, "Others": "0", "image": "http://www.hkev.com.hk/chargerImage?file=90214_p", "address": "Skyline Tower, 12 Kai Shun Road, Kowloon Bay", "carPark": "Skyline Tower", "groupID": "90214", "TeslaWallConnector": "0", "longitude": "114.204962", "latitude": "22.32617", "district": "Kowloon Bay", "sockets": {"BSSocket": "1"}, "region": "Kowloon", "free": "-", "party": "other", "connectServer": "false", "chargerCost": "Free"}, {"totalSockets": 1, "vacancyEV": 0, "Others": "0", "image": "http://www.hkev.com.hk/chargerImage?file=90215_p", "address": "Westin Centre, 26 Hung To Road, Kwun Tong", "carPark": "Westin Centre", "groupID": "90215", "TeslaWallConnector": "0", "longitude": "114.21924", "latitude": "22.313078", "district": "Kwun Tong", "sockets": {"BSSocket": "1"}, "region": "Kowloon", "free": "-", "party": "other", "connectServer": "false", "chargerCost": "Free"}, {"sockets": {"TeslaSuperSocket": "4", "IECComSocket": "1", "IECQSocket": "27", "CdMSocket": "1"}, "totalSockets": 33, "vacancyEV": 2, "Others": "0", "image": "http://www.hkev.com.hk/chargerImage?file=90216_p", "address": "Festival Walk, 80 Tat Chee Road, Kowloon Tong", "carPark": "Festival Walk", "groupID": "90216", "TeslaWallConnector": "0", "longitude": "114.174584", "latitude": "22.337233", "district": "Kowloon Tong", "region": "Kowloon", "free": "true", "party": "other", "connectServer": "false", "chargerCost": "Free"}, {"totalSockets": 2, "vacancyEV": 0, "Others": "0", "image": "http://www.hkev.com.hk/chargerImage?file=90217_p", "address": "Mount Beacon, Tat Hong Road, Kowloon Tong", "carPark": "Mount Beacon (Private Use Only)", "groupID": "90217", "TeslaWallConnector": "0", "longitude": "114.172172", "latitude": "22.340234", "district": "Kowloon Tong", "sockets": {"BSSocket": "2"}, "region": "Kowloon", "free": "-", "party": "other", "connectServer": "false", "chargerCost": "Free"}, {"totalSockets": 6, "vacancyEV": 1, "Others": "0", "image": "http://www.hkev.com.hk/chargerImage?file=90218_p", "address": "Lok Fu Shopping Centre, 196 Junction Road, Wong Tai Sin", "carPark": "Lok Fu Plaza", "groupID": "90218", "TeslaWallConnector": "0", "longitude": "114.187305", "latitude": "22.337376", "district": "Wong Tai Sin", "sockets": {"IECSocket": "3", "BSSocket": "3"}, "region": "Kowloon", "free": "true", "party": "other", "connectServer": "false", "chargerCost": "Free"}, {"totalSockets": 11, "vacancyEV": 2, "Others": "0", "image": "http://www.hkev.com.hk/chargerImage?file=90220_p", "address": "Hollywood Plaza, 3 Lung Poon Street, Diamond Hill", "carPark": "Plaza Hollywood", "groupID": "90220", "sockets": {"IECQSocket": "3", "BSSocket": "8"}, "TeslaWallConnector": "0", "longitude": "114.20217", "latitude": "22.340485", "district": "Diamond Hill", "region": "Kowloon", "free": "-", "party": "other", "connectServer": "false", "chargerCost": "Free"}, {"totalSockets": 3, "vacancyEV": 1, "Others": "0", "image": "http://www.hkev.com.hk/chargerImage?file=90221_p", "address": "Scenic View, 63 Fung Shing Street, Kowloon Bay", "carPark": "Scenic View (Private Use Only)", "groupID": "90221", "TeslaWallConnector": "0", "longitude": "114.214919", "latitude": "22.33728", "district": "Kowloon Bay", "sockets": {"BSSocket": "3"}, "region": "Kowloon", "free": "-", "party": "other", "connectServer": "false", "chargerCost": "Free"}, {"totalSockets": 4, "vacancyEV": 0, "Others": "0", "image": "http://www.hkev.com.hk/chargerImage?file=90222_p", "address": "China Hong Kong City, 33 Canton Road, Tsim Sha Tsui", "carPark": "China Hong Kong City", "groupID": "90222", "TeslaWallConnector": "0", "longitude": "114.167288", "latitude": "22.300738", "district": "Tsim Sha Tsui", "sockets": {"IECSocket": "2", "BSSocket": "2"}, "region": "Kowloon", "free": "true", "party": "other", "connectServer": "false", "chargerCost": "Free"}, {"totalSockets": 2, "vacancyEV": 0, "Others": "0", "image": "http://www.hkev.com.hk/chargerImage?file=90223_p", "address": "MOKO, 193 Prince Edward Road West, Mong Kok", "carPark": "MOKO", "groupID": "90223", "sockets": {"IECQSocket": "2"}, "TeslaWallConnector": "0", "longitude": "114.172086", "latitude": "22.323004", "district": "Mong Kok", "region": "Kowloon", "free": "-", "party": "other", "connectServer": "false", "chargerCost": "Free"}, {"totalSockets": 33, "vacancyEV": 9, "Others": "0", "image": "http://www.hkev.com.hk/chargerImage?file=90224_p", "address": "Harbour City, 3 - 27 Canton Road, Tsim Sha Tsui", "carPark": "Ocean Terminal", "groupID": "90224", "sockets": {"IECComSocket": "1", "IECQSocket": "1", "CdMSocket": "1", "IECSocket": "3", "BSSocket": "27"}, "TeslaWallConnector": "0", "longitude": "114.169249", "latitude": "22.295504", "district": "Tsim Sha Tsui", "region": "Kowloon", "free": "-", "party": "other", "connectServer": "false", "chargerCost": "Free"}, {"totalSockets": 6, "vacancyEV": 1, "Others": "0", "image": "http://www.hkev.com.hk/chargerImage?file=90225_p", "address": "Langham Place, 555 Shanghai Street, Mong Kok", "carPark": "Langham Place", "groupID": "90225", "TeslaWallConnector": "0", "longitude": "114.168677", "latitude": "22.317557", "district": "Mong Kok", "sockets": {"IECSocket": "3", "BSSocket": "3"}, "region": "Kowloon", "free": "true", "party": "other", "connectServer": "false", "chargerCost": "Free"}, {"totalSockets": 4, "vacancyEV": 2, "Others": "0", "image": "http://www.hkev.com.hk/chargerImage?file=90226_p", "address": "The Long Beach, 8 Hoi Fai Road, Tai Kok Tsui", "carPark": "The Long Beach", "groupID": "90226", "TeslaWallConnector": "0", "longitude": "114.155846", "latitude": "22.319751", "district": "Tai Kok Tsui", "sockets": {"IECSocket": "2", "BSSocket": "2"}, "region": "Kowloon", "free": "-", "party": "other", "connectServer": "false", "chargerCost": "Free"}, {"totalSockets": 4, "vacancyEV": 1, "Others": "0", "image": "http://www.hkev.com.hk/chargerImage?file=90227_p", "address": "Olympian City II, 18 Hoi Ting Road, Tai Kok Tsui", "carPark": "Olympian City II", "groupID": "90227", "TeslaWallConnector": "0", "longitude": "114.162835", "latitude": "22.316011", "district": "Tai Kok Tsui", "sockets": {"IECSocket": "2", "BSSocket": "2"}, "region": "Kowloon", "free": "true", "party": "other", "connectServer": "false", "chargerCost": "Free"}, {"totalSockets": 3, "vacancyEV": 0, "Others": "0", "image": "http://www.hkev.com.hk/chargerImage?file=90228_p", "address": "Hong Kong Scout Centre, 8 Austin Road, Tsim Sha Tsui", "carPark": "Hong Kong Scout Centre", "groupID": "90228", "TeslaWallConnector": "0", "longitude": "114.169517", "latitude": "22.302696", "district": "Tsim Sha Tsui", "sockets": {"BSSocket": "3"}, "region": "Kowloon", "free": "-", "party": "other", "connectServer": "false", "chargerCost": "Free"}, {"totalSockets": 2, "vacancyEV": 0, "Others": "0", "image": "http://www.hkev.com.hk/chargerImage?file=90229_p", "address": "Empire Centre, 68 Mody Road, Tsim Sha Tsui", "carPark": "Empire Centre", "groupID": "90229", "TeslaWallConnector": "0", "longitude": "114.178435", "latitude": "22.298328", "district": "Tsim Sha Tsui", "sockets": {"BSSocket": "2"}, "region": "Kowloon", "free": "-", "party": "other", "connectServer": "false", "chargerCost": "Free"}, {"totalSockets": 11, "vacancyEV": 1, "Others": "0", "image": "http://www.hkev.com.hk/chargerImage?file=90230_p", "address": "The Hermitage, 1 Hoi Wan Road, Tai Kok Tsui", "carPark": "The Hermitage (Private Use Only)", "groupID": "90230", "TeslaWallConnector": "0", "longitude": "114.164675", "latitude": "22.317746", "district": "Tai Kok Tsui", "sockets": {"BSSocket": "11"}, "region": "Kowloon", "free": "-", "party": "other", "connectServer": "false", "chargerCost": "Free"}, {"totalSockets": 3, "vacancyEV": 1, "Others": "0", "image": "http://www.hkev.com.hk/chargerImage?file=90231_p", "address": "K11 Art Mall, 1-3 Mody Road, Tsim Sha Tsui", "carPark": "K11", "groupID": "90231", "TeslaWallConnector": "6", "longitude": "114.173301", "latitude": "22.297299", "district": "Tsim Sha Tsui", "sockets": {"BSSocket": "3"}, "region": "Kowloon", "free": "-", "party": "other", "connectServer": "false", "chargerCost": "Free"}, {"totalSockets": 2, "vacancyEV": 1, "Others": "0", "image": "http://www.hkev.com.hk/chargerImage?file=90232_p", "address": "One SilverSea, 18 Hoi Fai Road, Tai Kok Tsui", "carPark": "One SilverSea (Private Use Only)", "groupID": "90232", "TeslaWallConnector": "0", "longitude": "114.155577", "latitude": "22.317791", "district": "Tai Kok Tsui", "sockets": {"BSSocket": "2"}, "region": "Kowloon", "free": "-", "party": "other", "connectServer": "false", "chargerCost": "Free"}, {"sockets": {"TeslaSuperSocket": "4", "BSSocket": "2"}, "totalSockets": 6, "vacancyEV": 1, "Others": "0", "image": "http://www.hkev.com.hk/chargerImage?file=90233_p", "address": "Olympian City I, Hoi Fan Road, Tai Kok Tsui", "carPark": "Olympian City I", "groupID": "90233", "TeslaWallConnector": "0", "longitude": "114.15815", "latitude": "22.319845", "district": "Tai Kok Tsui", "region": "Kowloon", "free": "-", "party": "other", "connectServer": "false", "chargerCost": "Free"}, {"totalSockets": 3, "vacancyEV": 0, "Others": "0", "image": "http://www.hkev.com.hk/chargerImage?file=90234_p", "address": "New World Centre Carpark, 24 Salisbury Road, Tsim Sha Tsui", "carPark": "New World Centre Carpark", "groupID": "90234", "TeslaWallConnector": "0", "longitude": "114.17589", "latitude": "22.295107", "district": "Tsim Sha Tsui", "sockets": {"BSSocket": "3"}, "region": "Kowloon", "free": "-", "party": "other", "connectServer": "false", "chargerCost": "Free"}, {"totalSockets": 1, "vacancyEV": 0, "Others": "0", "image": "http://www.hkev.com.hk/chargerImage?file=90235_p", "address": "Whampoa Plaza, 7 Tak On Street, Hung Hom", "carPark": "Whampoa Plaza", "groupID": "90235", "TeslaWallConnector": "0", "longitude": "114.190478", "latitude": "22.30456", "district": "Hung Hom", "sockets": {"BSSocket": "1"}, "region": "Kowloon", "free": "-", "party": "other", "connectServer": "false", "chargerCost": "Free"},